[
    {
        "name": "אבו ג'ווייעד",
        "english_name": "abu juwei'id",
        "long": 34.7749,
        "latt": 32.05493
    },
    {
        "name": "אבו גוש",
        "english_name": "abu ghosh",
        "long": 35.11018,
        "latt": 31.80599
    },
    {
        "name": "אבו סנאן",
        "english_name": "abu sinan",
        "long": 35.16889,
        "latt": 32.96091
    },
    {
        "name": "אבו סריחאן",
        "english_name": "abu sureihan",
        "long": 35.11016,
        "latt": 31.80575
    },
    {
        "name": "אבו עבדון",
        "english_name": "abu  abdun",
        "long": 35.11016,
        "latt": 31.80575
    },
    {
        "name": "אבו עמאר",
        "english_name": "abu  ammar",
        "long": 35.14814,
        "latt": 32.53362
    },
    {
        "name": "אבו עמרה",
        "english_name": "abu  amre",
        "long": 35.14814,
        "latt": 32.53362
    },
    {
        "name": "אבו קורינאת",
        "english_name": "abu qureinat",
        "long": 34.95858,
        "latt": 31.13369
    },
    {
        "name": "אבו קרינאת ישוב",
        "english_name": "abu qureinat",
        "long": 34.95858,
        "latt": 31.13369
    },
    {
        "name": "אבו רובייעה",
        "english_name": "abu rubei'a",
        "long": 35.23931,
        "latt": 31.74771
    },
    {
        "name": "אבו רוקייק",
        "english_name": "abu ruqayyeq",
        "long": 35.11016,
        "latt": 31.80575
    },
    {
        "name": "אבו תלול",
        "english_name": "abu tulul",
        "long": 34.73974,
        "latt": 31.38059
    },
    {
        "name": "אבטין",
        "english_name": "ibtin",
        "long": 35.11249,
        "latt": 32.76212
    },
    {
        "name": "אבטליון",
        "english_name": "avtalyon",
        "long": 35.35097,
        "latt": 32.83714
    },
    {
        "name": "אביאל",
        "english_name": "avi'el",
        "long": 34.99309,
        "latt": 32.53172
    },
    {
        "name": "אביבים",
        "english_name": "avivim",
        "long": 35.47129,
        "latt": 33.08795
    },
    {
        "name": "אביגדור",
        "english_name": "avigedor",
        "long": 34.74354,
        "latt": 31.70979
    },
    {
        "name": "אביחיל",
        "english_name": "avihayil",
        "long": 34.87219,
        "latt": 32.35006
    },
    {
        "name": "אביטל",
        "english_name": "avital",
        "long": 35.3072,
        "latt": 32.5574
    },
    {
        "name": "אביעזר",
        "english_name": "avi'ezer",
        "long": 35.01557,
        "latt": 31.68145
    },
    {
        "name": "אבירים",
        "english_name": "abbirim",
        "long": 35.28713,
        "latt": 33.03834
    },
    {
        "name": "אבן יהודה",
        "english_name": "even yehuda",
        "long": 34.88373,
        "latt": 32.26816
    },
    {
        "name": "אבן מנחם",
        "english_name": "even menahem",
        "long": 35.29372,
        "latt": 33.07447
    },
    {
        "name": "אבן ספיר",
        "english_name": "even sappir",
        "long": 35.13319,
        "latt": 31.7624
    },
    {
        "name": "אבן שמואל",
        "english_name": "even shemu'el",
        "long": 34.76301,
        "latt": 31.57571
    },
    {
        "name": "אבני איתן",
        "english_name": "avne etan",
        "long": 35.76519,
        "latt": 32.82348
    },
    {
        "name": "אבני חפץ",
        "english_name": "avne hefez",
        "long": 35.07212,
        "latt": 32.28615
    },
    {
        "name": "אבנת",
        "english_name": "avenat",
        "long": 35.43593,
        "latt": 31.67913
    },
    {
        "name": "אבשלום",
        "english_name": "avshalom",
        "long": 34.33561,
        "latt": 31.19688
    },
    {
        "name": "אדורה",
        "english_name": "adora",
        "long": 35.01789,
        "latt": 31.55234
    },
    {
        "name": "אדירים",
        "english_name": "addirim",
        "long": 35.27265,
        "latt": 32.54921
    },
    {
        "name": "אדמית",
        "english_name": "adamit",
        "long": 35.22,
        "latt": 33.08578
    },
    {
        "name": "אדרת",
        "english_name": "adderet",
        "long": 34.99497,
        "latt": 31.66031
    },
    {
        "name": "אודים",
        "english_name": "udim",
        "long": 34.8483,
        "latt": 32.26596
    },
    {
        "name": "אודם",
        "english_name": "odem",
        "long": 35.74999,
        "latt": 33.19321
    },
    {
        "name": "אוהד",
        "english_name": "ohad",
        "long": 34.43204,
        "latt": 31.23698
    },
    {
        "name": "אוהלו",
        "english_name": "",
        "long": 35.57231,
        "latt": 32.71645
    },
    {
        "name": "אום אל-פחם",
        "english_name": "umm al-fahm",
        "long": 35.15075,
        "latt": 32.52211
    },
    {
        "name": "אום אל-קוטוף",
        "english_name": "umm al-qutuf",
        "long": 35.05631,
        "latt": 32.46961
    },
    {
        "name": "אום בטין",
        "english_name": "",
        "long": 34.88228,
        "latt": 31.27432
    },
    {
        "name": "אומן",
        "english_name": "omen",
        "long": 35.24238,
        "latt": 32.56336
    },
    {
        "name": "אומץ",
        "english_name": "omez",
        "long": 34.99499,
        "latt": 32.36982
    },
    {
        "name": "אופקים",
        "english_name": "ofaqim",
        "long": 34.62162,
        "latt": 31.31092
    },
    {
        "name": "אור הגנוז",
        "english_name": "or haganuz",
        "long": 35.4465,
        "latt": 33.00501
    },
    {
        "name": "אור הנר",
        "english_name": "or haner",
        "long": 34.60179,
        "latt": 31.55644
    },
    {
        "name": "אור יהודה",
        "english_name": "or yehuda",
        "long": 34.85581,
        "latt": 32.0274
    },
    {
        "name": "אור עקיבא",
        "english_name": "or aqiva",
        "long": 34.92006,
        "latt": 32.50949
    },
    {
        "name": "אורה",
        "english_name": "ora",
        "long": 35.1535,
        "latt": 31.75491
    },
    {
        "name": "אורות",
        "english_name": "orot",
        "long": 34.73523,
        "latt": 31.74248
    },
    {
        "name": "אורטל",
        "english_name": "ortal",
        "long": 35.76167,
        "latt": 33.08467
    },
    {
        "name": "אורים",
        "english_name": "urim",
        "long": 34.52379,
        "latt": 31.30455
    },
    {
        "name": "אורנים",
        "english_name": "oranim",
        "long": 34.63622,
        "latt": 31.80528
    },
    {
        "name": "אורנית",
        "english_name": "oranit",
        "long": 34.99226,
        "latt": 32.13009
    },
    {
        "name": "אושה",
        "english_name": "usha",
        "long": 35.1141,
        "latt": 32.79592
    },
    {
        "name": "אזור",
        "english_name": "azor",
        "long": 34.80794,
        "latt": 32.02283
    },
    {
        "name": "אחווה",
        "english_name": "ahawa",
        "long": 34.76886,
        "latt": 31.74367
    },
    {
        "name": "אחוזם",
        "english_name": "ahuzzam",
        "long": 34.77037,
        "latt": 31.55397
    },
    {
        "name": "אחוזת ברק",
        "english_name": "",
        "long": 35.33763,
        "latt": 32.64347
    },
    {
        "name": "אחיהוד",
        "english_name": "ahihud",
        "long": 35.18461,
        "latt": 32.90701
    },
    {
        "name": "אחיטוב",
        "english_name": "ahituv",
        "long": 34.99074,
        "latt": 32.38775
    },
    {
        "name": "אחיסמך",
        "english_name": "ahisamakh",
        "long": 34.90748,
        "latt": 31.93476
    },
    {
        "name": "אחיעזר",
        "english_name": "ahi'ezer",
        "long": 34.87178,
        "latt": 31.98121
    },
    {
        "name": "אטרש",
        "english_name": "atrash",
        "long": 34.94938,
        "latt": 31.25999
    },
    {
        "name": "איבים",
        "english_name": "ibbim",
        "long": 34.61102,
        "latt": 31.53252
    },
    {
        "name": "אייל",
        "english_name": "eyal",
        "long": 34.97885,
        "latt": 32.21102
    },
    {
        "name": "איילת השחר",
        "english_name": "ayyelet hashahar",
        "long": 35.57871,
        "latt": 33.02257
    },
    {
        "name": "אילון",
        "english_name": "elon",
        "long": 35.21814,
        "latt": 33.06341
    },
    {
        "name": "אילות",
        "english_name": "elot",
        "long": 34.96328,
        "latt": 29.58043
    },
    {
        "name": "אילניה",
        "english_name": "ilaniyya",
        "long": 35.40563,
        "latt": 32.75992
    },
    {
        "name": "אילנייה",
        "english_name": "",
        "long": 35.40654,
        "latt": 32.75453
    },
    {
        "name": "אילת",
        "english_name": "elat",
        "long": 34.9398,
        "latt": 29.55374
    },
    {
        "name": "אירוס",
        "english_name": "irus",
        "long": 34.77663,
        "latt": 31.92878
    },
    {
        "name": "איתמר",
        "english_name": "itamar",
        "long": 35.3076,
        "latt": 32.17419
    },
    {
        "name": "איתן",
        "english_name": "etan",
        "long": 34.74803,
        "latt": 31.57241
    },
    {
        "name": "איתנים",
        "english_name": "etanim",
        "long": 35.09569,
        "latt": 31.77832
    },
    {
        "name": "אכסאל",
        "english_name": "iksal",
        "long": 35.32479,
        "latt": 32.68199
    },
    {
        "name": "אל -עזי",
        "english_name": "",
        "long": 34.80393,
        "latt": 31.72086
    },
    {
        "name": "אל -עריאן",
        "english_name": "",
        "long": 35.12496,
        "latt": 32.4977
    },
    {
        "name": "אל -רום",
        "english_name": "",
        "long": 35.77157,
        "latt": 33.17892
    },
    {
        "name": "אל סייד",
        "english_name": "",
        "long": 34.91182,
        "latt": 31.28601
    },
    {
        "name": "אל-עזי",
        "english_name": "",
        "long": 34.80961,
        "latt": 31.71869
    },
    {
        "name": "אל-עריאן",
        "english_name": "al-aryan",
        "long": 35.12291,
        "latt": 32.49802
    },
    {
        "name": "אל-רום",
        "english_name": "el-rom",
        "long": 35.76803,
        "latt": 33.18049
    },
    {
        "name": "אלומה",
        "english_name": "alumma",
        "long": 34.74397,
        "latt": 31.65181
    },
    {
        "name": "אלומות",
        "english_name": "alummot",
        "long": 35.5454,
        "latt": 32.70724
    },
    {
        "name": "אלון הגליל",
        "english_name": "allon hagalil",
        "long": 35.22025,
        "latt": 32.75904
    },
    {
        "name": "אלון מורה",
        "english_name": "elon more",
        "long": 35.33302,
        "latt": 32.23263
    },
    {
        "name": "אלון שבות",
        "english_name": "allon shevut",
        "long": 35.12463,
        "latt": 31.65555
    },
    {
        "name": "אלוני אבא",
        "english_name": "allone abba",
        "long": 35.17196,
        "latt": 32.72993
    },
    {
        "name": "אלוני הבשן",
        "english_name": "allone habashan",
        "long": 35.84054,
        "latt": 33.04387
    },
    {
        "name": "אלוני יצחק",
        "english_name": "allone yizhaq",
        "long": 35.00372,
        "latt": 32.51045
    },
    {
        "name": "אלונים",
        "english_name": "allonim",
        "long": 35.1472,
        "latt": 32.71641
    },
    {
        "name": "אלי סיני",
        "english_name": "",
        "long": 34.50354,
        "latt": 31.58344
    },
    {
        "name": "אלי-עד",
        "english_name": "eli al",
        "long": 35.72606,
        "latt": 32.80161
    },
    {
        "name": "אליאב",
        "english_name": "eliav",
        "long": 34.92792,
        "latt": 31.52966
    },
    {
        "name": "אליכין",
        "english_name": "elyakhin",
        "long": 34.92482,
        "latt": 32.40765
    },
    {
        "name": "אליפז",
        "english_name": "elifaz",
        "long": 35.01176,
        "latt": 29.79428
    },
    {
        "name": "אליפלט",
        "english_name": "elifelet",
        "long": 35.55219,
        "latt": 32.94693
    },
    {
        "name": "אליקים",
        "english_name": "elyaqim",
        "long": 35.06742,
        "latt": 32.63209
    },
    {
        "name": "אלישיב",
        "english_name": "elyashiv",
        "long": 34.90941,
        "latt": 32.37903
    },
    {
        "name": "אלישמע",
        "english_name": "elishama",
        "long": 34.9279,
        "latt": 32.15222
    },
    {
        "name": "אלמגור",
        "english_name": "almagor",
        "long": 35.6022,
        "latt": 32.91074
    },
    {
        "name": "אלמוג",
        "english_name": "almog",
        "long": 35.46174,
        "latt": 31.78769
    },
    {
        "name": "אלעד",
        "english_name": "",
        "long": 34.95697,
        "latt": 32.05067
    },
    {
        "name": "אלעזר",
        "english_name": "el'azar",
        "long": 35.14116,
        "latt": 31.6615
    },
    {
        "name": "אלפי מנשה",
        "english_name": "alfe menashe",
        "long": 35.0143,
        "latt": 32.17145
    },
    {
        "name": "אלקוש",
        "english_name": "elqosh",
        "long": 35.32371,
        "latt": 33.03331
    },
    {
        "name": "אלקנה",
        "english_name": "elqana",
        "long": 35.03515,
        "latt": 32.11219
    },
    {
        "name": "אמונים",
        "english_name": "emunim",
        "long": 34.67592,
        "latt": 31.74347
    },
    {
        "name": "אמירים",
        "english_name": "amirim",
        "long": 35.44942,
        "latt": 32.93812
    },
    {
        "name": "אמנון",
        "english_name": "amnun",
        "long": 35.5733,
        "latt": 32.90401
    },
    {
        "name": "אמציה",
        "english_name": "amazya",
        "long": 34.91357,
        "latt": 31.53345
    },
    {
        "name": "אניעם",
        "english_name": "ani'am",
        "long": 35.74061,
        "latt": 32.95763
    },
    {
        "name": "אסד",
        "english_name": "asad",
        "long": 35.26595,
        "latt": 32.93719
    },
    {
        "name": "אספר",
        "english_name": "asefar",
        "long": 35.19167,
        "latt": 31.58689
    },
    {
        "name": "אעבלין",
        "english_name": "i'billin",
        "long": 35.18567,
        "latt": 32.82667
    },
    {
        "name": "אעצם",
        "english_name": "a'sam",
        "long": 35.567,
        "latt": 32.72451
    },
    {
        "name": "אפיניש",
        "english_name": "afeinish",
        "long": 34.64788,
        "latt": 31.79672
    },
    {
        "name": "אפיק",
        "english_name": "afiq",
        "long": 35.70402,
        "latt": 32.77791
    },
    {
        "name": "אפיקים",
        "english_name": "afiqim",
        "long": 35.57809,
        "latt": 32.68038
    },
    {
        "name": "אפק",
        "english_name": "afeq",
        "long": 35.12781,
        "latt": 32.8396
    },
    {
        "name": "אפרת",
        "english_name": "efrat",
        "long": 35.14936,
        "latt": 31.65233
    },
    {
        "name": "אפרתה",
        "english_name": "",
        "long": 35.1561,
        "latt": 31.66117
    },
    {
        "name": "ארבל",
        "english_name": "arbel",
        "long": 35.48376,
        "latt": 32.81255
    },
    {
        "name": "ארגמן",
        "english_name": "argaman",
        "long": 35.52189,
        "latt": 32.17259
    },
    {
        "name": "ארז",
        "english_name": "erez",
        "long": 34.56676,
        "latt": 31.56005
    },
    {
        "name": "אריאל",
        "english_name": "ari'el",
        "long": 35.19181,
        "latt": 32.10467
    },
    {
        "name": "ארסוף",
        "english_name": "arsuf",
        "long": 34.81623,
        "latt": 32.21385
    },
    {
        "name": "אשבול",
        "english_name": "eshbol",
        "long": 34.66712,
        "latt": 31.44606
    },
    {
        "name": "אשבל",
        "english_name": "nahal eshbal",
        "long": 35.3053,
        "latt": 32.87718
    },
    {
        "name": "אשדוד",
        "english_name": "ashdod",
        "long": 34.64748,
        "latt": 31.79426
    },
    {
        "name": "אשדות יעקב (איחוד)",
        "english_name": "",
        "long": 35.57975,
        "latt": 32.65961
    },
    {
        "name": "אשדות יעקב (מאוחד)",
        "english_name": "",
        "long": 35.58204,
        "latt": 32.66544
    },
    {
        "name": "אשדות יעקב איחוד",
        "english_name": "ashdot ya'aqov(ihud)",
        "long": 35.58294,
        "latt": 32.65829
    },
    {
        "name": "אשדות יעקב מאוחד",
        "english_name": "ashdot ya'aqov(me'uh",
        "long": 35.58204,
        "latt": 32.66523
    },
    {
        "name": "אשחר",
        "english_name": "eshhar",
        "long": 35.29845,
        "latt": 32.88374
    },
    {
        "name": "אשכולות",
        "english_name": "eshkolot",
        "long": 34.90497,
        "latt": 31.39105
    },
    {
        "name": "אשל הנשיא",
        "english_name": "eshel hanasi",
        "long": 34.69933,
        "latt": 31.32555
    },
    {
        "name": "אשלים",
        "english_name": "ashalim",
        "long": 34.70701,
        "latt": 30.96997
    },
    {
        "name": "אשקלון",
        "english_name": "ashqelon",
        "long": 34.5705,
        "latt": 31.66669
    },
    {
        "name": "אשרת",
        "english_name": "",
        "long": 35.15541,
        "latt": 32.97167
    },
    {
        "name": "אשתאול",
        "english_name": "eshta'ol",
        "long": 35.00872,
        "latt": 31.78154
    },
    {
        "name": "אתגר",
        "english_name": "etgar",
        "long": 34.96747,
        "latt": 32.77241
    },
    {
        "name": "באקה אל-גרביה",
        "english_name": "",
        "long": 35.04106,
        "latt": 32.4195
    },
    {
        "name": "באקה-ג'ת",
        "english_name": "",
        "long": 35.03825,
        "latt": 32.41598
    },
    {
        "name": "באר אורה",
        "english_name": "be'er ora",
        "long": 34.98582,
        "latt": 29.70954
    },
    {
        "name": "באר גנים",
        "english_name": "beer gannim",
        "long": 34.61207,
        "latt": 31.7
    },
    {
        "name": "באר טוביה",
        "english_name": "be'er tuveya",
        "long": 34.71988,
        "latt": 31.73193
    },
    {
        "name": "באר יעקב",
        "english_name": "be'er ya'aqov",
        "long": 34.84066,
        "latt": 31.94396
    },
    {
        "name": "באר מילכה",
        "english_name": "",
        "long": 34.40659,
        "latt": 30.93208
    },
    {
        "name": "באר שבע",
        "english_name": "be'er sheva",
        "long": 34.78641,
        "latt": 31.25669
    },
    {
        "name": "בארות יצחק",
        "english_name": "be'erot yizhaq",
        "long": 34.91024,
        "latt": 32.04136
    },
    {
        "name": "בארותיים",
        "english_name": "be'erotayim",
        "long": 34.98507,
        "latt": 32.32153
    },
    {
        "name": "בארי",
        "english_name": "be'eri",
        "long": 34.49146,
        "latt": 31.42425
    },
    {
        "name": "בוסתן הגליל",
        "english_name": "bustan hagalil",
        "long": 35.08268,
        "latt": 32.95042
    },
    {
        "name": "בועיינה-נוג'ידאת",
        "english_name": "bu'eine-nujeidat",
        "long": 35.36932,
        "latt": 32.8083
    },
    {
        "name": "בוקעאתא",
        "english_name": "buq'ata",
        "long": 35.7807,
        "latt": 33.20034
    },
    {
        "name": "בורגתה",
        "english_name": "burgeta",
        "long": 34.9625,
        "latt": 32.32463
    },
    {
        "name": "בחן",
        "english_name": "bahan",
        "long": 35.01879,
        "latt": 32.35017
    },
    {
        "name": "בטחה",
        "english_name": "bitha",
        "long": 34.6321,
        "latt": 31.33441
    },
    {
        "name": "ביאדה",
        "english_name": "",
        "long": 35.16601,
        "latt": 32.5574
    },
    {
        "name": "ביצרון",
        "english_name": "bizzaron",
        "long": 34.73023,
        "latt": 31.79564
    },
    {
        "name": "ביר אל-מכסור",
        "english_name": "bir el-maksur",
        "long": 35.2229,
        "latt": 32.78345
    },
    {
        "name": "ביר הדאג'",
        "english_name": "",
        "long": 34.70412,
        "latt": 31.02058
    },
    {
        "name": "ביריה",
        "english_name": "biriyya",
        "long": 35.49992,
        "latt": 32.97912
    },
    {
        "name": "בירייה",
        "english_name": "",
        "long": 35.49971,
        "latt": 32.97877
    },
    {
        "name": "בית אורן",
        "english_name": "bet oren",
        "long": 35.00522,
        "latt": 32.73164
    },
    {
        "name": "בית אל",
        "english_name": "bet el",
        "long": 35.22463,
        "latt": 31.94122
    },
    {
        "name": "בית אלעזרי",
        "english_name": "bet el'azari",
        "long": 34.80326,
        "latt": 31.84446
    },
    {
        "name": "בית אלפא",
        "english_name": "bet alfa",
        "long": 35.43231,
        "latt": 32.5172
    },
    {
        "name": "בית אריה",
        "english_name": "bet arye",
        "long": 35.05146,
        "latt": 32.03628
    },
    {
        "name": "בית ברל",
        "english_name": "bet berl",
        "long": 34.9266,
        "latt": 32.20136
    },
    {
        "name": "בית ג'ן",
        "english_name": "beit jann",
        "long": 35.3776,
        "latt": 32.96506
    },
    {
        "name": "בית גוברין",
        "english_name": "bet guvrin",
        "long": 34.89578,
        "latt": 31.61226
    },
    {
        "name": "בית גמליאל",
        "english_name": "bet gamli'el",
        "long": 34.76133,
        "latt": 31.85728
    },
    {
        "name": "בית דגן",
        "english_name": "bet dagan",
        "long": 34.83002,
        "latt": 31.99981
    },
    {
        "name": "בית הגדי",
        "english_name": "bet hagaddi",
        "long": 34.60679,
        "latt": 31.42478
    },
    {
        "name": "בית הלוי",
        "english_name": "bet halevi",
        "long": 34.93186,
        "latt": 32.35368
    },
    {
        "name": "בית הלל",
        "english_name": "bet hillel",
        "long": 35.60523,
        "latt": 33.20887
    },
    {
        "name": "בית העמק",
        "english_name": "bet haemeq",
        "long": 35.14509,
        "latt": 32.9708
    },
    {
        "name": "בית הערבה",
        "english_name": "bet haarava",
        "long": 35.48109,
        "latt": 31.80801
    },
    {
        "name": "בית השיטה",
        "english_name": "bet hashitta",
        "long": 35.43857,
        "latt": 32.54989
    },
    {
        "name": "בית זיד",
        "english_name": "bet zeid",
        "long": 35.11539,
        "latt": 32.70163
    },
    {
        "name": "בית זית",
        "english_name": "bet zayit",
        "long": 35.16189,
        "latt": 31.78238
    },
    {
        "name": "בית זרע",
        "english_name": "bet zera",
        "long": 35.57328,
        "latt": 32.68918
    },
    {
        "name": "בית חורון",
        "english_name": "bet horon",
        "long": 35.12852,
        "latt": 31.87678
    },
    {
        "name": "בית חירות",
        "english_name": "bet herut",
        "long": 34.87134,
        "latt": 32.37646
    },
    {
        "name": "בית חלקיה",
        "english_name": "bet hilqiyya",
        "long": 34.81178,
        "latt": 31.7922
    },
    {
        "name": "בית חנן",
        "english_name": "bet hanan",
        "long": 34.77269,
        "latt": 31.9343
    },
    {
        "name": "בית חנניה",
        "english_name": "bet hananya",
        "long": 34.92587,
        "latt": 32.52887
    },
    {
        "name": "בית חשמונאי",
        "english_name": "bet hashmonay",
        "long": 34.91719,
        "latt": 31.88919
    },
    {
        "name": "בית יהושע",
        "english_name": "bet yehoshua",
        "long": 34.864,
        "latt": 32.2602
    },
    {
        "name": "בית יוסף",
        "english_name": "bet yosef",
        "long": 35.55073,
        "latt": 32.55928
    },
    {
        "name": "בית ינאי",
        "english_name": "bet yannay",
        "long": 34.86335,
        "latt": 32.3799
    },
    {
        "name": "בית יצחק-שער חפר",
        "english_name": "bet yizhaq-sh. hefer",
        "long": 34.89084,
        "latt": 32.3339
    },
    {
        "name": "בית לחם הגלילית",
        "english_name": "bet lehem hagelilit",
        "long": 35.19189,
        "latt": 32.73424
    },
    {
        "name": "בית מאיר",
        "english_name": "bet me'ir",
        "long": 35.03682,
        "latt": 31.7942
    },
    {
        "name": "בית נחמיה",
        "english_name": "bet nehemya",
        "long": 34.9552,
        "latt": 31.97554
    },
    {
        "name": "בית ניר",
        "english_name": "bet nir",
        "long": 34.87428,
        "latt": 31.64733
    },
    {
        "name": "בית נקופה",
        "english_name": "bet neqofa",
        "long": 35.12627,
        "latt": 31.80424
    },
    {
        "name": "בית עובד",
        "english_name": "bet oved",
        "long": 34.76992,
        "latt": 31.92381
    },
    {
        "name": "בית עוזיאל",
        "english_name": "bet uzzi'el",
        "long": 34.90293,
        "latt": 31.87119
    },
    {
        "name": "בית עזרא",
        "english_name": "bet ezra",
        "long": 34.65549,
        "latt": 31.73662
    },
    {
        "name": "בית עריף",
        "english_name": "bet arif",
        "long": 34.9345,
        "latt": 31.99578
    },
    {
        "name": "בית צבי",
        "english_name": "bet zevi",
        "long": 34.97037,
        "latt": 32.72007
    },
    {
        "name": "בית קמה",
        "english_name": "bet qama",
        "long": 34.76124,
        "latt": 31.44626
    },
    {
        "name": "בית קשת",
        "english_name": "bet qeshet",
        "long": 35.39667,
        "latt": 32.71587
    },
    {
        "name": "בית רבן",
        "english_name": "bet rabban",
        "long": 34.72936,
        "latt": 31.81694
    },
    {
        "name": "בית רימון",
        "english_name": "bet rimmon",
        "long": 35.32996,
        "latt": 32.78265
    },
    {
        "name": "בית שאן",
        "english_name": "bet she'an",
        "long": 35.49713,
        "latt": 32.49404
    },
    {
        "name": "בית שמש",
        "english_name": "bet shemesh",
        "long": 34.9907,
        "latt": 31.74525
    },
    {
        "name": "בית שערים",
        "english_name": "bet she'arim",
        "long": 35.17755,
        "latt": 32.69577
    },
    {
        "name": "בית שקמה",
        "english_name": "bet shiqma",
        "long": 34.60854,
        "latt": 31.63795
    },
    {
        "name": "ביתן אהרן",
        "english_name": "bitan aharon",
        "long": 34.87067,
        "latt": 32.36452
    },
    {
        "name": "ביתר עילית",
        "english_name": "betar illit",
        "long": 35.11316,
        "latt": 31.69833
    },
    {
        "name": "בכורה",
        "english_name": "",
        "long": 35.4837,
        "latt": 32.44746
    },
    {
        "name": "בלפוריה",
        "english_name": "balfuriyya",
        "long": 35.29662,
        "latt": 32.63002
    },
    {
        "name": "בן זכאי",
        "english_name": "ben zakkay",
        "long": 34.72892,
        "latt": 31.85628
    },
    {
        "name": "בן עמי",
        "english_name": "ben ammi",
        "long": 35.12369,
        "latt": 33.00586
    },
    {
        "name": "בן שמן (כפר נוער)",
        "english_name": "",
        "long": 34.92777,
        "latt": 31.95978
    },
    {
        "name": "בן שמן (מושב)",
        "english_name": "",
        "long": 34.92181,
        "latt": 31.95222
    },
    {
        "name": "בן שמן כפר נוער",
        "english_name": "ben shemen(k.no'ar)",
        "long": 34.92837,
        "latt": 31.95927
    },
    {
        "name": "בן שמן מושב",
        "english_name": "ben shemen (moshav)",
        "long": 34.92251,
        "latt": 31.95336
    },
    {
        "name": "בני ברק",
        "english_name": "bene beraq",
        "long": 34.83526,
        "latt": 32.08707
    },
    {
        "name": "בני דקלים",
        "english_name": "bne dkalim",
        "long": 34.91799,
        "latt": 31.51578
    },
    {
        "name": "בני דרום",
        "english_name": "bene darom",
        "long": 34.69265,
        "latt": 31.82046
    },
    {
        "name": "בני דרור",
        "english_name": "bene deror",
        "long": 34.90049,
        "latt": 32.26108
    },
    {
        "name": "בני יהודה",
        "english_name": "bene yehuda",
        "long": 35.68562,
        "latt": 32.79407
    },
    {
        "name": "בני נצרים",
        "english_name": "bene nezarim",
        "long": 34.31874,
        "latt": 31.1411
    },
    {
        "name": "בני עטרות",
        "english_name": "bene atarot",
        "long": 34.91375,
        "latt": 32.02414
    },
    {
        "name": "בני עי\"ש",
        "english_name": "bene ayish",
        "long": 34.76023,
        "latt": 31.78913
    },
    {
        "name": "בני ציון",
        "english_name": "bene ziyyon",
        "long": 34.87086,
        "latt": 32.22022
    },
    {
        "name": "בני ראם",
        "english_name": "bene re'em",
        "long": 34.79092,
        "latt": 31.76997
    },
    {
        "name": "בניה",
        "english_name": "benaya",
        "long": 34.7522,
        "latt": 31.84286
    },
    {
        "name": "בנימינה",
        "english_name": "",
        "long": 34.94669,
        "latt": 32.52625
    },
    {
        "name": "בנימינה-גבעת עדה",
        "english_name": "binyamina",
        "long": 34.94185,
        "latt": 32.51832
    },
    {
        "name": "בסמ\"ה",
        "english_name": "basma",
        "long": 35.15627,
        "latt": 32.73817
    },
    {
        "name": "בסמת טבעון",
        "english_name": "basmat tab'un",
        "long": 35.14742,
        "latt": 32.74073
    },
    {
        "name": "בענה",
        "english_name": "bi ne",
        "long": 35.27482,
        "latt": 32.92885
    },
    {
        "name": "בצרה",
        "english_name": "bazra",
        "long": 34.87953,
        "latt": 32.21345
    },
    {
        "name": "בצת",
        "english_name": "",
        "long": 35.13443,
        "latt": 33.07065
    },
    {
        "name": "בקוע",
        "english_name": "beqoa",
        "long": 34.9251,
        "latt": 31.82927
    },
    {
        "name": "בקעות",
        "english_name": "beqa'ot",
        "long": 35.45513,
        "latt": 32.24246
    },
    {
        "name": "בר גיורא",
        "english_name": "bar giyyora",
        "long": 35.07157,
        "latt": 31.72956
    },
    {
        "name": "בר יוחאי",
        "english_name": "bar yohay",
        "long": 35.44116,
        "latt": 32.9973
    },
    {
        "name": "ברוכין",
        "english_name": "brukhin",
        "long": 35.09126,
        "latt": 32.08203
    },
    {
        "name": "ברור חיל",
        "english_name": "beror hayil",
        "long": 34.64525,
        "latt": 31.55774
    },
    {
        "name": "ברוש",
        "english_name": "berosh",
        "long": 34.63185,
        "latt": 31.37057
    },
    {
        "name": "ברטעה",
        "english_name": "",
        "long": 35.09298,
        "latt": 32.47329
    },
    {
        "name": "ברכה",
        "english_name": "berakha",
        "long": 35.26531,
        "latt": 32.19286
    },
    {
        "name": "ברכיה",
        "english_name": "berekhya",
        "long": 34.62575,
        "latt": 31.66969
    },
    {
        "name": "ברעם",
        "english_name": "bar'am",
        "long": 35.393,
        "latt": 33.0218
    },
    {
        "name": "ברק",
        "english_name": "baraq",
        "long": 35.2649,
        "latt": 32.54282
    },
    {
        "name": "ברקאי",
        "english_name": "barqay",
        "long": 35.02929,
        "latt": 32.47517
    },
    {
        "name": "ברקן",
        "english_name": "barqan",
        "long": 35.1131,
        "latt": 32.10689
    },
    {
        "name": "ברקת",
        "english_name": "bareqet",
        "long": 34.95315,
        "latt": 32.01315
    },
    {
        "name": "בת הדר",
        "english_name": "bat hadar",
        "long": 34.59474,
        "latt": 31.64515
    },
    {
        "name": "בת חן",
        "english_name": "bat hen",
        "long": 34.57688,
        "latt": 31.65231
    },
    {
        "name": "בת חפר",
        "english_name": "bat hefer",
        "long": 35.01343,
        "latt": 32.33343
    },
    {
        "name": "בת חצור",
        "english_name": "bat hazor",
        "long": 34.75747,
        "latt": 32.01137
    },
    {
        "name": "בת ים",
        "english_name": "bat yam",
        "long": 34.74902,
        "latt": 32.01405
    },
    {
        "name": "בת עין",
        "english_name": "bat ayin",
        "long": 35.10025,
        "latt": 31.65873
    },
    {
        "name": "בת שלמה",
        "english_name": "bat shelomo",
        "long": 35.00341,
        "latt": 32.60038
    },
    {
        "name": "ג'דיידה-מכר",
        "english_name": "judeide-maker",
        "long": 35.13926,
        "latt": 32.9275
    },
    {
        "name": "ג'ולס",
        "english_name": "julis",
        "long": 35.18077,
        "latt": 32.94131
    },
    {
        "name": "ג'לג'וליה",
        "english_name": "jaljulye",
        "long": 34.95506,
        "latt": 32.1507
    },
    {
        "name": "ג'נאביב",
        "english_name": "junnabib",
        "long": 34.78953,
        "latt": 32.08556
    },
    {
        "name": "ג'סר א-זרקא",
        "english_name": "jisr az-zarqa",
        "long": 34.91151,
        "latt": 32.53673
    },
    {
        "name": "ג'ש (גוש חלב)",
        "english_name": "",
        "long": 35.44677,
        "latt": 33.02256
    },
    {
        "name": "ג'ש גוש חלב",
        "english_name": "jish(gush halav)",
        "long": 35.44701,
        "latt": 33.02289
    },
    {
        "name": "ג'ת",
        "english_name": "jaat",
        "long": 35.03816,
        "latt": 32.39918
    },
    {
        "name": "גאולי תימן",
        "english_name": "ge'ule teman",
        "long": 34.90163,
        "latt": 32.39232
    },
    {
        "name": "גאולים",
        "english_name": "ge'ulim",
        "long": 34.94463,
        "latt": 32.29893
    },
    {
        "name": "גאליה",
        "english_name": "ge'alya",
        "long": 34.76619,
        "latt": 31.88481
    },
    {
        "name": "גבולות",
        "english_name": "gevulot",
        "long": 34.46583,
        "latt": 31.21043
    },
    {
        "name": "גבים",
        "english_name": "gevim",
        "long": 34.59833,
        "latt": 31.50707
    },
    {
        "name": "גבע",
        "english_name": "geva",
        "long": 35.37299,
        "latt": 32.56641
    },
    {
        "name": "גבע בנימין",
        "english_name": "geva binyamin",
        "long": 35.27575,
        "latt": 31.84983
    },
    {
        "name": "גבע כרמל",
        "english_name": "geva  karmel",
        "long": 34.9575,
        "latt": 32.66308
    },
    {
        "name": "גבעולים",
        "english_name": "giv'olim",
        "long": 34.59096,
        "latt": 31.39655
    },
    {
        "name": "גבעון החדשה",
        "english_name": "giv'on hahadasha",
        "long": 35.15956,
        "latt": 31.84714
    },
    {
        "name": "גבעות בר",
        "english_name": "",
        "long": 34.75599,
        "latt": 31.35767
    },
    {
        "name": "גבעת אבני",
        "english_name": "giv'at avni",
        "long": 35.43823,
        "latt": 32.77487
    },
    {
        "name": "גבעת אלה",
        "english_name": "giv'at ela",
        "long": 35.2441,
        "latt": 32.72175
    },
    {
        "name": "גבעת ברנר",
        "english_name": "giv'at brenner",
        "long": 34.80122,
        "latt": 31.86591
    },
    {
        "name": "גבעת השלושה",
        "english_name": "giv'at hashelosha",
        "long": 34.9216,
        "latt": 32.09813
    },
    {
        "name": "גבעת זאב",
        "english_name": "giv'at ze'ev",
        "long": 35.16567,
        "latt": 31.8585
    },
    {
        "name": "גבעת ח\"ן",
        "english_name": "giv'at hen",
        "long": 34.8721,
        "latt": 32.16771
    },
    {
        "name": "גבעת חיים (איחוד)",
        "english_name": "",
        "long": 34.93318,
        "latt": 32.39944
    },
    {
        "name": "גבעת חיים (מאוחד)",
        "english_name": "",
        "long": 34.93146,
        "latt": 32.39114
    },
    {
        "name": "גבעת חיים איחוד",
        "english_name": "giv'at hayyim (ihud)",
        "long": 34.93342,
        "latt": 32.39609
    },
    {
        "name": "גבעת חיים מאוחד",
        "english_name": "giv'at hayyim(me'uha",
        "long": 34.93146,
        "latt": 32.39115
    },
    {
        "name": "גבעת יואב",
        "english_name": "giv'at yo'av",
        "long": 35.68158,
        "latt": 32.79876
    },
    {
        "name": "גבעת יערים",
        "english_name": "giv'at ye'arim",
        "long": 35.09214,
        "latt": 31.78663
    },
    {
        "name": "גבעת ישעיהו",
        "english_name": "giv'at yesha'yahu",
        "long": 34.94772,
        "latt": 31.67041
    },
    {
        "name": "גבעת כ\"ח",
        "english_name": "giv'at koah",
        "long": 34.93613,
        "latt": 32.03004
    },
    {
        "name": "גבעת ניל\"י",
        "english_name": "giv'at nili",
        "long": 35.04097,
        "latt": 32.5477
    },
    {
        "name": "גבעת עדה",
        "english_name": "",
        "long": 35.00521,
        "latt": 32.51941
    },
    {
        "name": "גבעת עוז",
        "english_name": "giv'at oz",
        "long": 35.19842,
        "latt": 32.55541
    },
    {
        "name": "גבעת שמואל",
        "english_name": "giv'at shemu'el",
        "long": 34.85312,
        "latt": 32.07721
    },
    {
        "name": "גבעת שמש",
        "english_name": "giv'at shemesh",
        "long": 34.95151,
        "latt": 31.77522
    },
    {
        "name": "גבעת שפירא",
        "english_name": "giv'at shappira",
        "long": 34.87748,
        "latt": 32.35932
    },
    {
        "name": "גבעתי",
        "english_name": "giv'ati",
        "long": 34.67984,
        "latt": 31.73261
    },
    {
        "name": "גבעתיים",
        "english_name": "giv'atayim",
        "long": 34.81043,
        "latt": 32.0703
    },
    {
        "name": "גברעם",
        "english_name": "gevar'am",
        "long": 34.61292,
        "latt": 31.59189
    },
    {
        "name": "גבת",
        "english_name": "gevat",
        "long": 35.21279,
        "latt": 32.67474
    },
    {
        "name": "גדות",
        "english_name": "gadot",
        "long": 35.61983,
        "latt": 33.01793
    },
    {
        "name": "גדיש",
        "english_name": "gadish",
        "long": 35.24531,
        "latt": 32.5588
    },
    {
        "name": "גדעונה",
        "english_name": "gid'ona",
        "long": 35.35882,
        "latt": 32.54903
    },
    {
        "name": "גדרה",
        "english_name": "gedera",
        "long": 34.7795,
        "latt": 31.81118
    },
    {
        "name": "גונן",
        "english_name": "gonen",
        "long": 35.6462,
        "latt": 33.12277
    },
    {
        "name": "גורן",
        "english_name": "goren",
        "long": 35.2353,
        "latt": 33.05734
    },
    {
        "name": "גורנות הגליל",
        "english_name": "gornot hagalil",
        "long": 35.24961,
        "latt": 33.05991
    },
    {
        "name": "גזית",
        "english_name": "gazit",
        "long": 35.44709,
        "latt": 32.63763
    },
    {
        "name": "גזר",
        "english_name": "gezer",
        "long": 34.9162,
        "latt": 31.87578
    },
    {
        "name": "גיאה",
        "english_name": "ge'a",
        "long": 34.60351,
        "latt": 31.628
    },
    {
        "name": "גיבתון",
        "english_name": "gibbeton",
        "long": 34.79995,
        "latt": 31.88873
    },
    {
        "name": "גיזו",
        "english_name": "gizo",
        "long": 34.93851,
        "latt": 31.80492
    },
    {
        "name": "גילון",
        "english_name": "gilon",
        "long": 35.23593,
        "latt": 32.90377
    },
    {
        "name": "גילת",
        "english_name": "gilat",
        "long": 34.65344,
        "latt": 31.32693
    },
    {
        "name": "גינוסר",
        "english_name": "ginnosar",
        "long": 35.55098,
        "latt": 32.87162
    },
    {
        "name": "גיניגר",
        "english_name": "ginnegar",
        "long": 35.25937,
        "latt": 32.6638
    },
    {
        "name": "גינתון",
        "english_name": "ginnaton",
        "long": 34.91378,
        "latt": 31.96328
    },
    {
        "name": "גיתה",
        "english_name": "gitta",
        "long": 35.25043,
        "latt": 32.96714
    },
    {
        "name": "גיתית",
        "english_name": "gittit",
        "long": 35.39627,
        "latt": 32.10357
    },
    {
        "name": "גלאון",
        "english_name": "gal'on",
        "long": 34.84788,
        "latt": 31.63331
    },
    {
        "name": "גלגל",
        "english_name": "gilgal",
        "long": 35.44755,
        "latt": 31.99972
    },
    {
        "name": "גליל ים",
        "english_name": "gelil yam",
        "long": 34.83318,
        "latt": 32.15718
    },
    {
        "name": "גלעד (אבן יצחק)",
        "english_name": "",
        "long": 35.07679,
        "latt": 32.55675
    },
    {
        "name": "גלעד אבן יצחק",
        "english_name": "even yizhaq(gal'ed)",
        "long": 35.07676,
        "latt": 32.55651
    },
    {
        "name": "גמזו",
        "english_name": "gimzo",
        "long": 34.94083,
        "latt": 31.92825
    },
    {
        "name": "גן הדרום",
        "english_name": "gan hadarom",
        "long": 34.7009,
        "latt": 31.80412
    },
    {
        "name": "גן השומרון",
        "english_name": "gan hashomeron",
        "long": 35.00114,
        "latt": 32.46301
    },
    {
        "name": "גן חיים",
        "english_name": "gan hayyim",
        "long": 34.90591,
        "latt": 32.19523
    },
    {
        "name": "גן יאשיה",
        "english_name": "gan yoshiyya",
        "long": 34.99454,
        "latt": 32.34955
    },
    {
        "name": "גן יבנה",
        "english_name": "gan yavne",
        "long": 34.7097,
        "latt": 31.79021
    },
    {
        "name": "גן נר",
        "english_name": "gan ner",
        "long": 35.3357,
        "latt": 32.53119
    },
    {
        "name": "גן שורק",
        "english_name": "gan soreq",
        "long": 34.76062,
        "latt": 31.94555
    },
    {
        "name": "גן שלמה",
        "english_name": "gan shelomo",
        "long": 34.79828,
        "latt": 31.87823
    },
    {
        "name": "גן שמואל",
        "english_name": "gan shemu'el",
        "long": 34.95162,
        "latt": 32.44889
    },
    {
        "name": "גנות",
        "english_name": "gannot",
        "long": 34.8285,
        "latt": 32.01786
    },
    {
        "name": "גנות הדר",
        "english_name": "gannot hadar",
        "long": 34.90012,
        "latt": 32.31993
    },
    {
        "name": "גני הדר",
        "english_name": "ganne hadar",
        "long": 34.85384,
        "latt": 31.87861
    },
    {
        "name": "גני טל",
        "english_name": "",
        "long": 34.57053,
        "latt": 31.41506
    },
    {
        "name": "גני יוחנן",
        "english_name": "ganne yohanan",
        "long": 34.83709,
        "latt": 31.8577
    },
    {
        "name": "גני מודיעין",
        "english_name": "ganne modiin",
        "long": 35.00567,
        "latt": 31.90055
    },
    {
        "name": "גני עם",
        "english_name": "ganne am",
        "long": 34.9018,
        "latt": 32.15166
    },
    {
        "name": "גני תקווה",
        "english_name": "ganne tiqwa",
        "long": 34.87441,
        "latt": 32.06125
    },
    {
        "name": "גנים",
        "english_name": "",
        "long": 35.3372,
        "latt": 32.44968
    },
    {
        "name": "געש",
        "english_name": "ga'ash",
        "long": 34.82832,
        "latt": 32.22982
    },
    {
        "name": "געתון",
        "english_name": "ga'ton",
        "long": 35.20319,
        "latt": 33.00698
    },
    {
        "name": "גפן",
        "english_name": "gefen",
        "long": 34.87854,
        "latt": 31.7408
    },
    {
        "name": "גרופית",
        "english_name": "gerofit",
        "long": 35.06593,
        "latt": 29.93888
    },
    {
        "name": "גשור",
        "english_name": "geshur",
        "long": 35.70861,
        "latt": 32.81201
    },
    {
        "name": "גשר",
        "english_name": "gesher",
        "long": 35.55114,
        "latt": 32.61989
    },
    {
        "name": "גשר הזיו",
        "english_name": "gesher haziw",
        "long": 35.11012,
        "latt": 33.0411
    },
    {
        "name": "גת",
        "english_name": "",
        "long": 35.03786,
        "latt": 32.39915
    },
    {
        "name": "גת (קיבוץ)",
        "english_name": "",
        "long": 34.79554,
        "latt": 31.62778
    },
    {
        "name": "גת קיבוץ",
        "english_name": "gat(qibbuz)",
        "long": 34.77751,
        "latt": 31.60331
    },
    {
        "name": "גת רימון",
        "english_name": "gat rimmon",
        "long": 34.88302,
        "latt": 32.06876
    },
    {
        "name": "דאלית אל-כרמל",
        "english_name": "daliyat al-karmel",
        "long": 35.04834,
        "latt": 32.69266
    },
    {
        "name": "דבורה",
        "english_name": "devora",
        "long": 35.26341,
        "latt": 32.55318
    },
    {
        "name": "דבוריה",
        "english_name": "dabburye",
        "long": 35.37122,
        "latt": 32.689
    },
    {
        "name": "דבורייה",
        "english_name": "",
        "long": 35.37181,
        "latt": 32.68949
    },
    {
        "name": "דבירה",
        "english_name": "devira",
        "long": 34.82563,
        "latt": 31.41177
    },
    {
        "name": "דברת",
        "english_name": "daverat",
        "long": 35.34952,
        "latt": 32.64634
    },
    {
        "name": "דגניה א'",
        "english_name": "deganya alef",
        "long": 35.57472,
        "latt": 32.70772
    },
    {
        "name": "דגניה ב'",
        "english_name": "deganya bet",
        "long": 35.57551,
        "latt": 32.70003
    },
    {
        "name": "דוב\"ב",
        "english_name": "dovev",
        "long": 35.40949,
        "latt": 33.05386
    },
    {
        "name": "דוגית",
        "english_name": "",
        "long": 34.48962,
        "latt": 31.57292
    },
    {
        "name": "דולב",
        "english_name": "dolev",
        "long": 35.1332,
        "latt": 31.92638
    },
    {
        "name": "דור",
        "english_name": "dor",
        "long": 34.92581,
        "latt": 32.60722
    },
    {
        "name": "דורות",
        "english_name": "dorot",
        "long": 34.64605,
        "latt": 31.50589
    },
    {
        "name": "דחי",
        "english_name": "dahi",
        "long": 35.34425,
        "latt": 32.62121
    },
    {
        "name": "דייר אל-אסד",
        "english_name": "deir al-asad",
        "long": 35.2678,
        "latt": 32.93207
    },
    {
        "name": "דייר חנא",
        "english_name": "deir hanna",
        "long": 35.36786,
        "latt": 32.86282
    },
    {
        "name": "דייר ראפאת",
        "english_name": "deir rafat",
        "long": 34.94726,
        "latt": 31.77628
    },
    {
        "name": "דימונה",
        "english_name": "dimona",
        "long": 35.02742,
        "latt": 31.06725
    },
    {
        "name": "דיר אל-אסד",
        "english_name": "",
        "long": 35.26599,
        "latt": 32.93748
    },
    {
        "name": "דישון",
        "english_name": "dishon",
        "long": 35.51884,
        "latt": 33.08221
    },
    {
        "name": "דליה",
        "english_name": "daliyya",
        "long": 35.07445,
        "latt": 32.58891
    },
    {
        "name": "דלייה",
        "english_name": "",
        "long": 35.07465,
        "latt": 32.58942
    },
    {
        "name": "דלתון",
        "english_name": "dalton",
        "long": 35.48712,
        "latt": 33.0168
    },
    {
        "name": "דמיידה",
        "english_name": "demeide",
        "long": 35.22244,
        "latt": 32.81799
    },
    {
        "name": "דן",
        "english_name": "dan",
        "long": 35.65307,
        "latt": 33.24014
    },
    {
        "name": "דפנה",
        "english_name": "dafna",
        "long": 35.63831,
        "latt": 33.22994
    },
    {
        "name": "דקל",
        "english_name": "deqel",
        "long": 34.34775,
        "latt": 31.19481
    },
    {
        "name": "דריג'את",
        "english_name": "",
        "long": 35.07553,
        "latt": 31.29902
    },
    {
        "name": "האון",
        "english_name": "haon",
        "long": 35.62188,
        "latt": 32.72517
    },
    {
        "name": "הבונים",
        "english_name": "habonim",
        "long": 34.93319,
        "latt": 32.64084
    },
    {
        "name": "הגושרים",
        "english_name": "hagosherim",
        "long": 35.62039,
        "latt": 33.22218
    },
    {
        "name": "הדר עם",
        "english_name": "hadar am",
        "long": 34.89981,
        "latt": 32.34953
    },
    {
        "name": "הוד השרון",
        "english_name": "hod hasharon",
        "long": 34.88604,
        "latt": 32.15429
    },
    {
        "name": "הודיה",
        "english_name": "hodiyya",
        "long": 34.64155,
        "latt": 31.67542
    },
    {
        "name": "הודיות",
        "english_name": "hodayot",
        "long": 35.43566,
        "latt": 32.7887
    },
    {
        "name": "הודייה",
        "english_name": "",
        "long": 34.64164,
        "latt": 31.67556
    },
    {
        "name": "הוזייל",
        "english_name": "huzayyel",
        "long": 34.75092,
        "latt": 31.40777
    },
    {
        "name": "הושעיה",
        "english_name": "hosha'aya",
        "long": 35.2921,
        "latt": 32.75819
    },
    {
        "name": "הזורע",
        "english_name": "hazorea",
        "long": 35.12061,
        "latt": 32.6432
    },
    {
        "name": "הזורעים",
        "english_name": "hazore'im",
        "long": 35.50215,
        "latt": 32.74646
    },
    {
        "name": "החותרים",
        "english_name": "hahoterim",
        "long": 34.95711,
        "latt": 32.75176
    },
    {
        "name": "היוגב",
        "english_name": "hayogev",
        "long": 35.20615,
        "latt": 32.61187
    },
    {
        "name": "הילה",
        "english_name": "hilla",
        "long": 35.24403,
        "latt": 33.03587
    },
    {
        "name": "המעפיל",
        "english_name": "hama'pil",
        "long": 34.98333,
        "latt": 32.37789
    },
    {
        "name": "הסוללים",
        "english_name": "hasolelim",
        "long": 35.23756,
        "latt": 32.75196
    },
    {
        "name": "העוגן",
        "english_name": "haogen",
        "long": 34.92382,
        "latt": 32.36235
    },
    {
        "name": "הר אדר",
        "english_name": "har adar",
        "long": 35.12948,
        "latt": 31.82678
    },
    {
        "name": "הר גילה",
        "english_name": "har gillo",
        "long": 35.16855,
        "latt": 31.72323
    },
    {
        "name": "הר עמשא",
        "english_name": "har amasa",
        "long": 35.10172,
        "latt": 31.34416
    },
    {
        "name": "הראל",
        "english_name": "har'el",
        "long": 34.95175,
        "latt": 31.80972
    },
    {
        "name": "הרדוף",
        "english_name": "harduf",
        "long": 35.17427,
        "latt": 32.76354
    },
    {
        "name": "הרצליה",
        "english_name": "herzeliyya",
        "long": 34.84064,
        "latt": 32.16385
    },
    {
        "name": "הרצלייה",
        "english_name": "",
        "long": 34.83507,
        "latt": 32.16902
    },
    {
        "name": "הררית",
        "english_name": "hararit",
        "long": 35.36572,
        "latt": 32.8459
    },
    {
        "name": "ורד יריחו",
        "english_name": "wered yeriho",
        "long": 35.43164,
        "latt": 31.82692
    },
    {
        "name": "ורדון",
        "english_name": "wardon",
        "long": 34.78166,
        "latt": 31.66424
    },
    {
        "name": "זבארגה",
        "english_name": "zabarga",
        "long": 34.81886,
        "latt": 32.1086
    },
    {
        "name": "זבדיאל",
        "english_name": "zavdi'el",
        "long": 34.76026,
        "latt": 31.65896
    },
    {
        "name": "זוהר",
        "english_name": "zohar",
        "long": 34.69253,
        "latt": 31.59589
    },
    {
        "name": "זיקים",
        "english_name": "ziqim",
        "long": 34.52174,
        "latt": 31.60839
    },
    {
        "name": "זיתן",
        "english_name": "zetan",
        "long": 34.89019,
        "latt": 31.97568
    },
    {
        "name": "זכרון יעקב",
        "english_name": "zikhron ya'aqov",
        "long": 34.95188,
        "latt": 32.56669
    },
    {
        "name": "זכריה",
        "english_name": "zekharya",
        "long": 34.94481,
        "latt": 31.70971
    },
    {
        "name": "זלפה",
        "english_name": "",
        "long": 35.18557,
        "latt": 32.54924
    },
    {
        "name": "זמר",
        "english_name": "zemer",
        "long": 35.03638,
        "latt": 32.36389
    },
    {
        "name": "זמרת",
        "english_name": "zimrat",
        "long": 34.55267,
        "latt": 31.44821
    },
    {
        "name": "זנוח",
        "english_name": "zanoah",
        "long": 35.00067,
        "latt": 31.73202
    },
    {
        "name": "זרועה",
        "english_name": "zeru'a",
        "long": 34.62443,
        "latt": 31.45852
    },
    {
        "name": "זרזיר",
        "english_name": "zarzir",
        "long": 35.22314,
        "latt": 32.72531
    },
    {
        "name": "זרחיה",
        "english_name": "zerahya",
        "long": 34.74604,
        "latt": 31.68151
    },
    {
        "name": "ח'ואלד",
        "english_name": "",
        "long": 35.15653,
        "latt": 32.75378
    },
    {
        "name": "חבצלת השרון",
        "english_name": "havazzelet hasharon",
        "long": 34.86262,
        "latt": 32.3604
    },
    {
        "name": "חבר",
        "english_name": "hever",
        "long": 35.26439,
        "latt": 32.54775
    },
    {
        "name": "חברון",
        "english_name": "",
        "long": 35.08619,
        "latt": 31.53448
    },
    {
        "name": "חגור",
        "english_name": "hagor",
        "long": 34.94724,
        "latt": 32.13789
    },
    {
        "name": "חגי",
        "english_name": "haggai",
        "long": 35.08015,
        "latt": 31.49291
    },
    {
        "name": "חגלה",
        "english_name": "hogla",
        "long": 34.92568,
        "latt": 32.38655
    },
    {
        "name": "חד-נס",
        "english_name": "had-nes",
        "long": 35.63936,
        "latt": 32.93125
    },
    {
        "name": "חדיד",
        "english_name": "hadid",
        "long": 34.93342,
        "latt": 31.96837
    },
    {
        "name": "חדרה",
        "english_name": "hadera",
        "long": 34.92117,
        "latt": 32.4389
    },
    {
        "name": "חוג'ייראת ד'הרה",
        "english_name": "hujeirat (dahra)",
        "long": 35.18481,
        "latt": 32.7967
    },
    {
        "name": "חולדה",
        "english_name": "hulda",
        "long": 34.88256,
        "latt": 31.83066
    },
    {
        "name": "חולון",
        "english_name": "holon",
        "long": 34.78335,
        "latt": 32.01065
    },
    {
        "name": "חולית",
        "english_name": "holit",
        "long": 34.32563,
        "latt": 31.23029
    },
    {
        "name": "חולתה",
        "english_name": "hulata",
        "long": 35.61008,
        "latt": 33.05148
    },
    {
        "name": "חוסן",
        "english_name": "hosen",
        "long": 35.29941,
        "latt": 32.99796
    },
    {
        "name": "חוסנייה",
        "english_name": "hussniyya",
        "long": 35.32062,
        "latt": 32.90061
    },
    {
        "name": "חופית",
        "english_name": "hofit",
        "long": 34.87437,
        "latt": 32.38546
    },
    {
        "name": "חוקוק",
        "english_name": "huqoq",
        "long": 35.49675,
        "latt": 32.87805
    },
    {
        "name": "חורה",
        "english_name": "hura",
        "long": 34.93461,
        "latt": 31.29852
    },
    {
        "name": "חורפיש",
        "english_name": "hurfeish",
        "long": 35.34469,
        "latt": 33.01657
    },
    {
        "name": "חורשים",
        "english_name": "horeshim",
        "long": 34.97061,
        "latt": 32.13835
    },
    {
        "name": "חזון",
        "english_name": "hazon",
        "long": 35.39515,
        "latt": 32.90598
    },
    {
        "name": "חיבת ציון",
        "english_name": "hibbat ziyyon",
        "long": 34.91505,
        "latt": 32.39718
    },
    {
        "name": "חיננית",
        "english_name": "hinnanit",
        "long": 35.16615,
        "latt": 32.48134
    },
    {
        "name": "חיפה",
        "english_name": "haifa",
        "long": 35.00061,
        "latt": 32.80177
    },
    {
        "name": "חירות",
        "english_name": "herut",
        "long": 34.91626,
        "latt": 32.2398
    },
    {
        "name": "חלוץ",
        "english_name": "haluz",
        "long": 35.31179,
        "latt": 32.9503
    },
    {
        "name": "חלמיש",
        "english_name": "hallamish",
        "long": 35.12556,
        "latt": 32.00596
    },
    {
        "name": "חלץ",
        "english_name": "helez",
        "long": 34.65788,
        "latt": 31.57811
    },
    {
        "name": "חמאם",
        "english_name": "hamam",
        "long": 35.48988,
        "latt": 32.82984
    },
    {
        "name": "חמד",
        "english_name": "hemed",
        "long": 34.8389,
        "latt": 32.01934
    },
    {
        "name": "חמדיה",
        "english_name": "hamadya",
        "long": 35.5275,
        "latt": 32.5156
    },
    {
        "name": "חמדת",
        "english_name": "nahal hemdat",
        "long": 35.52658,
        "latt": 32.25119
    },
    {
        "name": "חמרה",
        "english_name": "hamra",
        "long": 35.43539,
        "latt": 32.19887
    },
    {
        "name": "חמש",
        "english_name": "",
        "long": 35.19375,
        "latt": 32.30995
    },
    {
        "name": "חניאל",
        "english_name": "hanni'el",
        "long": 34.94824,
        "latt": 32.33309
    },
    {
        "name": "חניתה",
        "english_name": "hanita",
        "long": 35.17401,
        "latt": 33.08781
    },
    {
        "name": "חנתון",
        "english_name": "hannaton",
        "long": 35.24395,
        "latt": 32.78448
    },
    {
        "name": "חספין",
        "english_name": "haspin",
        "long": 35.79361,
        "latt": 32.84528
    },
    {
        "name": "חפץ חיים",
        "english_name": "hafez hayyim",
        "long": 34.79779,
        "latt": 31.78974
    },
    {
        "name": "חפצי-בה",
        "english_name": "hefzi-bah",
        "long": 35.42475,
        "latt": 32.51944
    },
    {
        "name": "חצב",
        "english_name": "hazav",
        "long": 34.76999,
        "latt": 31.78066
    },
    {
        "name": "חצבה",
        "english_name": "hazeva",
        "long": 35.28006,
        "latt": 30.76785
    },
    {
        "name": "חצור הגלילית",
        "english_name": "hazor hagelilit",
        "long": 35.54457,
        "latt": 32.98262
    },
    {
        "name": "חצור-אשדוד",
        "english_name": "hazor-ashdod",
        "long": 34.72044,
        "latt": 31.77214
    },
    {
        "name": "חצר בארותיים",
        "english_name": "hazar be'erotayim",
        "long": 34.98462,
        "latt": 32.32078
    },
    {
        "name": "חצרות חולדה",
        "english_name": "hazrot hulda",
        "long": 34.88569,
        "latt": 31.82813
    },
    {
        "name": "חצרות יסף",
        "english_name": "hazrot yasaf",
        "long": 34.9223,
        "latt": 31.84725
    },
    {
        "name": "חצרות כ\"ח",
        "english_name": "hazrot koah",
        "long": 34.93625,
        "latt": 32.03109
    },
    {
        "name": "חצרים",
        "english_name": "hazerim",
        "long": 34.70681,
        "latt": 31.23921
    },
    {
        "name": "חרב לאת",
        "english_name": "herev le'et",
        "long": 34.91438,
        "latt": 32.40135
    },
    {
        "name": "חרוצים",
        "english_name": "haruzim",
        "long": 34.86488,
        "latt": 32.22737
    },
    {
        "name": "חריש",
        "english_name": "harish",
        "long": 35.03885,
        "latt": 32.47086
    },
    {
        "name": "חרמש",
        "english_name": "hermesh",
        "long": 35.11874,
        "latt": 32.42363
    },
    {
        "name": "חרשים",
        "english_name": "harashim",
        "long": 35.32817,
        "latt": 32.9567
    },
    {
        "name": "חשמונאים",
        "english_name": "hashmona'im",
        "long": 35.0238,
        "latt": 31.93129
    },
    {
        "name": "טבריה",
        "english_name": "tiberias",
        "long": 35.52581,
        "latt": 32.78723
    },
    {
        "name": "טובא-זנגריה",
        "english_name": "tuba-zangariyye",
        "long": 35.59814,
        "latt": 32.96715
    },
    {
        "name": "טובא-זנגרייה",
        "english_name": "",
        "long": 35.59007,
        "latt": 32.96494
    },
    {
        "name": "טורעאן",
        "english_name": "tur'an",
        "long": 35.37512,
        "latt": 32.77725
    },
    {
        "name": "טייבה",
        "english_name": "tayibe",
        "long": 35.01031,
        "latt": 32.26637
    },
    {
        "name": "טייבה (בעמק)",
        "english_name": "",
        "long": 35.44484,
        "latt": 32.60378
    },
    {
        "name": "טייבה בעמק",
        "english_name": "tayibe(baemeq)",
        "long": 35.44362,
        "latt": 32.60368
    },
    {
        "name": "טירה",
        "english_name": "tire",
        "long": 34.95642,
        "latt": 32.23328
    },
    {
        "name": "טירת יהודה",
        "english_name": "tirat yehuda",
        "long": 34.93336,
        "latt": 32.01323
    },
    {
        "name": "טירת כרמל",
        "english_name": "tirat karmel",
        "long": 34.96719,
        "latt": 32.76726
    },
    {
        "name": "טירת צבי",
        "english_name": "tirat zevi",
        "long": 35.52859,
        "latt": 32.42165
    },
    {
        "name": "טל שחר",
        "english_name": "tal shahar",
        "long": 34.9035,
        "latt": 31.80576
    },
    {
        "name": "טל-אל",
        "english_name": "tal-el",
        "long": 35.17881,
        "latt": 32.92678
    },
    {
        "name": "טללים",
        "english_name": "telalim",
        "long": 34.77212,
        "latt": 30.9928
    },
    {
        "name": "טלמון",
        "english_name": "talmon",
        "long": 35.13654,
        "latt": 31.93766
    },
    {
        "name": "טמרה",
        "english_name": "tamra",
        "long": 35.19504,
        "latt": 32.85514
    },
    {
        "name": "טמרה (יזרעאל)",
        "english_name": "",
        "long": 35.40411,
        "latt": 32.63457
    },
    {
        "name": "טמרה יזרעאל",
        "english_name": "tamra (yizre'el)",
        "long": 35.32107,
        "latt": 32.55994
    },
    {
        "name": "טנא",
        "english_name": "tene",
        "long": 34.95749,
        "latt": 31.37555
    },
    {
        "name": "טפחות",
        "english_name": "tefahot",
        "long": 35.43093,
        "latt": 32.87055
    },
    {
        "name": "יאנוח-ג'ת",
        "english_name": "yanuh-jat",
        "long": 35.24305,
        "latt": 32.98014
    },
    {
        "name": "יבול",
        "english_name": "yevul",
        "long": 34.31961,
        "latt": 31.18916
    },
    {
        "name": "יבנאל",
        "english_name": "yavne'el",
        "long": 35.50062,
        "latt": 32.70939
    },
    {
        "name": "יבנה",
        "english_name": "yavne",
        "long": 34.73654,
        "latt": 31.8792
    },
    {
        "name": "יגור",
        "english_name": "yagur",
        "long": 35.07592,
        "latt": 32.74316
    },
    {
        "name": "יגל",
        "english_name": "yagel",
        "long": 34.8791,
        "latt": 31.98831
    },
    {
        "name": "יד בנימין",
        "english_name": "yad binyamin",
        "long": 34.82207,
        "latt": 31.79774
    },
    {
        "name": "יד השמונה",
        "english_name": "yad hashemona",
        "long": 35.09104,
        "latt": 31.80759
    },
    {
        "name": "יד חנה",
        "english_name": "yad hanna",
        "long": 35.00657,
        "latt": 32.32568
    },
    {
        "name": "יד מרדכי",
        "english_name": "yad mordekhay",
        "long": 34.55802,
        "latt": 31.58829
    },
    {
        "name": "יד נתן",
        "english_name": "yad natan",
        "long": 34.70473,
        "latt": 31.65514
    },
    {
        "name": "יד רמב\"ם",
        "english_name": "yad rambam",
        "long": 34.90153,
        "latt": 31.90055
    },
    {
        "name": "ידידה",
        "english_name": "yedida",
        "long": 35.10411,
        "latt": 31.81189
    },
    {
        "name": "יהוד",
        "english_name": "",
        "long": 34.89022,
        "latt": 32.03077
    },
    {
        "name": "יהוד-מונוסון",
        "english_name": "yehud-monoson",
        "long": 34.89712,
        "latt": 32.02912
    },
    {
        "name": "יהל",
        "english_name": "yahel",
        "long": 35.12951,
        "latt": 30.08372
    },
    {
        "name": "יובל",
        "english_name": "yuval",
        "long": 35.59781,
        "latt": 33.24472
    },
    {
        "name": "יובלים",
        "english_name": "yuvalim",
        "long": 35.2705,
        "latt": 32.87812
    },
    {
        "name": "יודפת",
        "english_name": "yodefat",
        "long": 35.27241,
        "latt": 32.83691
    },
    {
        "name": "יונתן",
        "english_name": "yonatan",
        "long": 35.7938,
        "latt": 32.93658
    },
    {
        "name": "יושיביה",
        "english_name": "yoshivya",
        "long": 34.60925,
        "latt": 31.44303
    },
    {
        "name": "יזרעאל",
        "english_name": "yizre'el",
        "long": 35.32165,
        "latt": 32.5613
    },
    {
        "name": "יזרעם",
        "english_name": "",
        "long": 34.5725,
        "latt": 31.44322
    },
    {
        "name": "יחיעם",
        "english_name": "yehi'am",
        "long": 35.22039,
        "latt": 32.99632
    },
    {
        "name": "יטבתה",
        "english_name": "yotvata",
        "long": 35.06308,
        "latt": 29.895
    },
    {
        "name": "ייט\"ב",
        "english_name": "yitav",
        "long": 35.4229,
        "latt": 31.94857
    },
    {
        "name": "יכיני",
        "english_name": "yakhini",
        "long": 34.60001,
        "latt": 31.48296
    },
    {
        "name": "ינוב",
        "english_name": "yanuv",
        "long": 34.94992,
        "latt": 32.3071
    },
    {
        "name": "ינון",
        "english_name": "yinnon",
        "long": 34.78206,
        "latt": 31.74235
    },
    {
        "name": "יסוד המעלה",
        "english_name": "yesud hama'ala",
        "long": 35.60205,
        "latt": 33.05671
    },
    {
        "name": "יסודות",
        "english_name": "yesodot",
        "long": 34.85497,
        "latt": 31.81552
    },
    {
        "name": "יסעור",
        "english_name": "yas'ur",
        "long": 35.16651,
        "latt": 32.90076
    },
    {
        "name": "יעד",
        "english_name": "ya'ad",
        "long": 35.24414,
        "latt": 32.87767
    },
    {
        "name": "יעל",
        "english_name": "ya'el",
        "long": 35.30827,
        "latt": 32.55216
    },
    {
        "name": "יעף",
        "english_name": "ye'af",
        "long": 34.96468,
        "latt": 32.2675
    },
    {
        "name": "יערה",
        "english_name": "ya'ara",
        "long": 35.18545,
        "latt": 33.06755
    },
    {
        "name": "יפיע",
        "english_name": "yafi",
        "long": 35.27569,
        "latt": 32.68418
    },
    {
        "name": "יפית",
        "english_name": "yafit",
        "long": 35.47297,
        "latt": 32.06224
    },
    {
        "name": "יפעת",
        "english_name": "yif'at",
        "long": 35.22413,
        "latt": 32.67821
    },
    {
        "name": "יפתח",
        "english_name": "yiftah",
        "long": 35.55139,
        "latt": 33.12709
    },
    {
        "name": "יצהר",
        "english_name": "yizhar",
        "long": 35.235,
        "latt": 32.16942
    },
    {
        "name": "יציץ",
        "english_name": "yaziz",
        "long": 34.86113,
        "latt": 31.86323
    },
    {
        "name": "יקום",
        "english_name": "yaqum",
        "long": 34.84203,
        "latt": 32.24795
    },
    {
        "name": "יקיר",
        "english_name": "yaqir",
        "long": 35.11472,
        "latt": 32.14948
    },
    {
        "name": "יקנעם (מושבה)",
        "english_name": "",
        "long": 35.115,
        "latt": 32.65701
    },
    {
        "name": "יקנעם )מושבה(",
        "english_name": "yoqne'am(moshava)",
        "long": 35.11471,
        "latt": 32.65671
    },
    {
        "name": "יקנעם עילית",
        "english_name": "yoqne'am illit",
        "long": 35.09808,
        "latt": 32.65183
    },
    {
        "name": "יראון",
        "english_name": "yir'on",
        "long": 35.45465,
        "latt": 33.07735
    },
    {
        "name": "ירדנה",
        "english_name": "yardena",
        "long": 35.56392,
        "latt": 32.56527
    },
    {
        "name": "ירוחם",
        "english_name": "yeroham",
        "long": 34.93054,
        "latt": 30.98848
    },
    {
        "name": "ירושלים",
        "english_name": "jerusalem",
        "long": 35.20956,
        "latt": 31.77974
    },
    {
        "name": "ירחיב",
        "english_name": "yarhiv",
        "long": 34.96884,
        "latt": 32.15322
    },
    {
        "name": "ירכא",
        "english_name": "yirka",
        "long": 35.20217,
        "latt": 32.9544
    },
    {
        "name": "ירקונה",
        "english_name": "yarqona",
        "long": 34.9004,
        "latt": 32.14737
    },
    {
        "name": "ישע",
        "english_name": "yesha",
        "long": 34.40225,
        "latt": 31.24759
    },
    {
        "name": "ישעי",
        "english_name": "yish'i",
        "long": 34.9655,
        "latt": 31.75135
    },
    {
        "name": "ישרש",
        "english_name": "yashresh",
        "long": 34.84587,
        "latt": 31.91484
    },
    {
        "name": "יתד",
        "english_name": "yated",
        "long": 34.32683,
        "latt": 31.20688
    },
    {
        "name": "יתיר",
        "english_name": "",
        "long": 35.10906,
        "latt": 31.35547
    },
    {
        "name": "כאבול",
        "english_name": "kabul",
        "long": 35.20722,
        "latt": 32.87219
    },
    {
        "name": "כאוכב אבו אל-היג'א",
        "english_name": "kaokab abu al-hija",
        "long": 35.24836,
        "latt": 32.83059
    },
    {
        "name": "כברי",
        "english_name": "kabri",
        "long": 35.14674,
        "latt": 33.02041
    },
    {
        "name": "כדורי",
        "english_name": "kadoorie",
        "long": 35.40728,
        "latt": 32.70258
    },
    {
        "name": "כדים",
        "english_name": "",
        "long": 35.31897,
        "latt": 32.44992
    },
    {
        "name": "כדיתה",
        "english_name": "",
        "long": 35.46463,
        "latt": 33.00665
    },
    {
        "name": "כוכב השחר",
        "english_name": "kokhav hashahar",
        "long": 35.349,
        "latt": 31.95885
    },
    {
        "name": "כוכב יאיר",
        "english_name": "kokhav ya'ir",
        "long": 34.99471,
        "latt": 32.22126
    },
    {
        "name": "כוכב יעקב",
        "english_name": "kokhav ya'aqov",
        "long": 35.24356,
        "latt": 31.88074
    },
    {
        "name": "כוכב מיכאל",
        "english_name": "kokhav mikha'el",
        "long": 34.66877,
        "latt": 31.62946
    },
    {
        "name": "כורזים",
        "english_name": "korazim",
        "long": 35.55119,
        "latt": 32.90928
    },
    {
        "name": "כחל",
        "english_name": "kahal",
        "long": 35.50954,
        "latt": 32.89228
    },
    {
        "name": "כחלה",
        "english_name": "",
        "long": 35.5095,
        "latt": 32.89217
    },
    {
        "name": "כיסופים",
        "english_name": "kissufim",
        "long": 34.40024,
        "latt": 31.37449
    },
    {
        "name": "כישור",
        "english_name": "kishor",
        "long": 35.24958,
        "latt": 32.94558
    },
    {
        "name": "כליל",
        "english_name": "kelil",
        "long": 35.19958,
        "latt": 32.98038
    },
    {
        "name": "כלנית",
        "english_name": "kallanit",
        "long": 35.45844,
        "latt": 32.87442
    },
    {
        "name": "כמאנה",
        "english_name": "",
        "long": 35.34756,
        "latt": 32.90931
    },
    {
        "name": "כמהין",
        "english_name": "kemehin",
        "long": 34.43155,
        "latt": 30.91063
    },
    {
        "name": "כמון",
        "english_name": "kammon",
        "long": 35.35979,
        "latt": 32.91207
    },
    {
        "name": "כנות",
        "english_name": "kannot",
        "long": 34.75926,
        "latt": 31.80044
    },
    {
        "name": "כנף",
        "english_name": "kanaf",
        "long": 35.70211,
        "latt": 32.87079
    },
    {
        "name": "כנרת (מושבה)",
        "english_name": "",
        "long": 35.5641,
        "latt": 32.7222
    },
    {
        "name": "כנרת (קבוצה)",
        "english_name": "",
        "long": 35.56522,
        "latt": 32.71328
    },
    {
        "name": "כנרת )מושבה(",
        "english_name": "kinneret(moshava)",
        "long": 35.56419,
        "latt": 32.72186
    },
    {
        "name": "כנרת )קבוצה(",
        "english_name": "kinneret(qevuza)",
        "long": 35.57138,
        "latt": 32.71127
    },
    {
        "name": "כסיפה",
        "english_name": "kuseife",
        "long": 35.08005,
        "latt": 31.24472
    },
    {
        "name": "כסלון",
        "english_name": "kesalon",
        "long": 35.04943,
        "latt": 31.77375
    },
    {
        "name": "כסרא-סמיע",
        "english_name": "kisra-sumei",
        "long": 35.30392,
        "latt": 32.96969
    },
    {
        "name": "כעביה-טבאש-חג'אג'רה",
        "english_name": "ka'abiyye-tabbash-ha",
        "long": 35.19133,
        "latt": 32.74721
    },
    {
        "name": "כפר אביב",
        "english_name": "kefar aviv",
        "long": 34.72102,
        "latt": 31.83099
    },
    {
        "name": "כפר אדומים",
        "english_name": "kefar adummim",
        "long": 35.34018,
        "latt": 31.82105
    },
    {
        "name": "כפר אוריה",
        "english_name": "kefar uriyya",
        "long": 34.94706,
        "latt": 31.7936
    },
    {
        "name": "כפר אז\"ר",
        "english_name": "",
        "long": 34.84083,
        "latt": 32.05916
    },
    {
        "name": "כפר אחים",
        "english_name": "kefar ahim",
        "long": 34.75647,
        "latt": 31.74442
    },
    {
        "name": "כפר ביאליק",
        "english_name": "kefar bialik",
        "long": 35.08682,
        "latt": 32.82069
    },
    {
        "name": "כפר ביל\"ו",
        "english_name": "kefar bilu",
        "long": 34.82605,
        "latt": 31.87296
    },
    {
        "name": "כפר בלום",
        "english_name": "kefar blum",
        "long": 35.60988,
        "latt": 33.1722
    },
    {
        "name": "כפר בן נון",
        "english_name": "kefar bin nun",
        "long": 34.94827,
        "latt": 31.85982
    },
    {
        "name": "כפר ברא",
        "english_name": "kafar bara",
        "long": 34.97091,
        "latt": 32.13108
    },
    {
        "name": "כפר ברוך",
        "english_name": "kefar barukh",
        "long": 35.19023,
        "latt": 32.64666
    },
    {
        "name": "כפר גדעון",
        "english_name": "kefar gid'on",
        "long": 35.29117,
        "latt": 32.64408
    },
    {
        "name": "כפר גלים",
        "english_name": "kefar gallim",
        "long": 34.95857,
        "latt": 32.76647
    },
    {
        "name": "כפר גליקסון",
        "english_name": "kefar glikson",
        "long": 35.00503,
        "latt": 32.50587
    },
    {
        "name": "כפר גלעדי",
        "english_name": "kefar gil'adi",
        "long": 35.57594,
        "latt": 33.24205
    },
    {
        "name": "כפר דניאל",
        "english_name": "kefar daniyyel",
        "long": 34.93204,
        "latt": 31.93274
    },
    {
        "name": "כפר האורנים",
        "english_name": "kefar haoranim",
        "long": 35.03809,
        "latt": 31.91898
    },
    {
        "name": "כפר החורש",
        "english_name": "kefar hahoresh",
        "long": 35.27337,
        "latt": 32.70149
    },
    {
        "name": "כפר המכבי",
        "english_name": "kefar hamakkabi",
        "long": 35.12714,
        "latt": 32.77925
    },
    {
        "name": "כפר הנגיד",
        "english_name": "kefar hanagid",
        "long": 34.74902,
        "latt": 31.88699
    },
    {
        "name": "כפר הנוער הדתי",
        "english_name": "kefar hano'ar hadati",
        "long": 35.09919,
        "latt": 32.74275
    },
    {
        "name": "כפר הנשיא",
        "english_name": "kefar hanasi",
        "long": 35.60341,
        "latt": 32.97442
    },
    {
        "name": "כפר הס",
        "english_name": "kefar hess",
        "long": 34.93826,
        "latt": 32.24876
    },
    {
        "name": "כפר הרא\"ה",
        "english_name": "kefar haro'e",
        "long": 34.91113,
        "latt": 32.39008
    },
    {
        "name": "כפר הרי\"ף",
        "english_name": "kefar harif",
        "long": 34.79208,
        "latt": 31.74958
    },
    {
        "name": "כפר ויתקין",
        "english_name": "kefar vitkin",
        "long": 34.8835,
        "latt": 32.38255
    },
    {
        "name": "כפר ורבורג",
        "english_name": "kefar warburg",
        "long": 34.72547,
        "latt": 31.71936
    },
    {
        "name": "כפר ורדים",
        "english_name": "kefar weradim",
        "long": 35.26875,
        "latt": 32.99598
    },
    {
        "name": "כפר זוהרים",
        "english_name": "kefar zoharim",
        "long": 34.92588,
        "latt": 31.62189
    },
    {
        "name": "כפר זיתים",
        "english_name": "kefar zetim",
        "long": 35.46124,
        "latt": 32.80959
    },
    {
        "name": "כפר חב\"ד",
        "english_name": "kefar habad",
        "long": 34.85001,
        "latt": 31.9901
    },
    {
        "name": "כפר חושן",
        "english_name": "kefar hoshen",
        "long": 35.43948,
        "latt": 33.00973
    },
    {
        "name": "כפר חיטים",
        "english_name": "kefar hittim",
        "long": 35.50369,
        "latt": 32.80249
    },
    {
        "name": "כפר חיים",
        "english_name": "kefar hayyim",
        "long": 34.89953,
        "latt": 32.35528
    },
    {
        "name": "כפר חנניה",
        "english_name": "kefar hananya",
        "long": 35.42349,
        "latt": 32.91553
    },
    {
        "name": "כפר חסידים א'",
        "english_name": "kefar hasidim alef",
        "long": 35.09875,
        "latt": 32.74374
    },
    {
        "name": "כפר חסידים ב'",
        "english_name": "kefar hasidim bet",
        "long": 35.08726,
        "latt": 32.75262
    },
    {
        "name": "כפר חרוב",
        "english_name": "kefar haruv",
        "long": 35.6635,
        "latt": 32.76141
    },
    {
        "name": "כפר טרומן",
        "english_name": "kefar truman",
        "long": 34.92384,
        "latt": 31.98049
    },
    {
        "name": "כפר יאסיף",
        "english_name": "kafar yasif",
        "long": 35.16225,
        "latt": 32.9534
    },
    {
        "name": "כפר ידידיה",
        "english_name": "yedidya",
        "long": 34.89946,
        "latt": 32.34538
    },
    {
        "name": "כפר יהושע",
        "english_name": "kefar yehoshua",
        "long": 35.15286,
        "latt": 32.68132
    },
    {
        "name": "כפר יונה",
        "english_name": "kefar yona",
        "long": 34.92912,
        "latt": 32.3162
    },
    {
        "name": "כפר יחזקאל",
        "english_name": "kefar yehezqel",
        "long": 35.3588,
        "latt": 32.56666
    },
    {
        "name": "כפר יעבץ",
        "english_name": "kefar ya'bez",
        "long": 34.9654,
        "latt": 32.27501
    },
    {
        "name": "כפר כמא",
        "english_name": "kafar kama",
        "long": 35.44,
        "latt": 32.72154
    },
    {
        "name": "כפר כנא",
        "english_name": "kafar kanna",
        "long": 35.34173,
        "latt": 32.7474
    },
    {
        "name": "כפר מונש",
        "english_name": "kefar monash",
        "long": 34.91588,
        "latt": 32.34789
    },
    {
        "name": "כפר מימון",
        "english_name": "kefar maymon",
        "long": 34.54461,
        "latt": 31.4259
    },
    {
        "name": "כפר מל\"ל",
        "english_name": "kefar malal",
        "long": 34.89441,
        "latt": 32.16746
    },
    {
        "name": "כפר מנדא",
        "english_name": "kafar manda",
        "long": 35.2635,
        "latt": 32.80843
    },
    {
        "name": "כפר מנחם",
        "english_name": "kefar menahem",
        "long": 34.8342,
        "latt": 31.73234
    },
    {
        "name": "כפר מסריק",
        "english_name": "kefar masaryk",
        "long": 35.10001,
        "latt": 32.8866
    },
    {
        "name": "כפר מצר",
        "english_name": "kafar misr",
        "long": 35.42278,
        "latt": 32.64553
    },
    {
        "name": "כפר מרדכי",
        "english_name": "kefar mordekhay",
        "long": 34.75527,
        "latt": 31.83133
    },
    {
        "name": "כפר נטר",
        "english_name": "kefar netter",
        "long": 34.87189,
        "latt": 32.27582
    },
    {
        "name": "כפר סאלד",
        "english_name": "kefar szold",
        "long": 35.65716,
        "latt": 33.19458
    },
    {
        "name": "כפר סבא",
        "english_name": "kefar sava",
        "long": 34.91769,
        "latt": 32.17745
    },
    {
        "name": "כפר סילבר",
        "english_name": "kefar silver",
        "long": 34.60937,
        "latt": 31.67429
    },
    {
        "name": "כפר סירקין",
        "english_name": "kefar sirkin",
        "long": 34.92494,
        "latt": 32.07656
    },
    {
        "name": "כפר עבודה",
        "english_name": "kefar avoda",
        "long": 34.94128,
        "latt": 32.25796
    },
    {
        "name": "כפר עזה",
        "english_name": "kefar azza",
        "long": 34.53298,
        "latt": 31.48305
    },
    {
        "name": "כפר עציון",
        "english_name": "kefar ezyon",
        "long": 35.11546,
        "latt": 31.64946
    },
    {
        "name": "כפר פינס",
        "english_name": "kefar pines",
        "long": 35.00214,
        "latt": 32.48444
    },
    {
        "name": "כפר קאסם",
        "english_name": "kafar qasem",
        "long": 34.97599,
        "latt": 32.11452
    },
    {
        "name": "כפר קיש",
        "english_name": "kefar kish",
        "long": 35.44905,
        "latt": 32.66673
    },
    {
        "name": "כפר קרע",
        "english_name": "kafar qara",
        "long": 35.05047,
        "latt": 32.50486
    },
    {
        "name": "כפר ראש הנקרה",
        "english_name": "kefar rosh haniqra",
        "long": 35.11481,
        "latt": 33.08604
    },
    {
        "name": "כפר רוזנואלד (זרעית)",
        "english_name": "",
        "long": 35.28794,
        "latt": 33.09892
    },
    {
        "name": "כפר רוזנואלד )זרעית(",
        "english_name": "kefar rozenwald(zar.",
        "long": 34.91713,
        "latt": 32.18219
    },
    {
        "name": "כפר רופין",
        "english_name": "kefar ruppin",
        "long": 35.55579,
        "latt": 32.45865
    },
    {
        "name": "כפר רות",
        "english_name": "kefar rut",
        "long": 35.0306,
        "latt": 31.90977
    },
    {
        "name": "כפר שמאי",
        "english_name": "kefar shammay",
        "long": 35.45707,
        "latt": 32.95668
    },
    {
        "name": "כפר שמואל",
        "english_name": "kefar shemu'el",
        "long": 34.93236,
        "latt": 31.88999
    },
    {
        "name": "כפר שמריהו",
        "english_name": "kefar shemaryahu",
        "long": 34.82484,
        "latt": 32.18592
    },
    {
        "name": "כפר תבור",
        "english_name": "kefar tavor",
        "long": 35.42111,
        "latt": 32.68822
    },
    {
        "name": "כפר תפוח",
        "english_name": "kefar tappuah",
        "long": 35.24985,
        "latt": 32.11952
    },
    {
        "name": "כרי דשא",
        "english_name": "kare deshe",
        "long": 35.53414,
        "latt": 32.86272
    },
    {
        "name": "כרכום",
        "english_name": "karkom",
        "long": 35.60794,
        "latt": 32.93001
    },
    {
        "name": "כרם בן זמרה",
        "english_name": "kerem ben zimra",
        "long": 35.47103,
        "latt": 33.03399
    },
    {
        "name": "כרם בן שמן",
        "english_name": "kerem ben shemen",
        "long": 34.93699,
        "latt": 31.95781
    },
    {
        "name": "כרם יבנה (ישיבה)",
        "english_name": "",
        "long": 34.72163,
        "latt": 31.81944
    },
    {
        "name": "כרם יבנה )ישיבה(",
        "english_name": "kerem yavne(yeshiva)",
        "long": 34.72205,
        "latt": 31.81934
    },
    {
        "name": "כרם מהר\"ל",
        "english_name": "kerem maharal",
        "long": 34.9901,
        "latt": 32.64627
    },
    {
        "name": "כרם שלום",
        "english_name": "kerem shalom",
        "long": 34.2845,
        "latt": 31.22782
    },
    {
        "name": "כרמי יוסף",
        "english_name": "karme yosef",
        "long": 34.92052,
        "latt": 31.84799
    },
    {
        "name": "כרמי צור",
        "english_name": "karme zur",
        "long": 35.10013,
        "latt": 31.6087
    },
    {
        "name": "כרמי קטיף",
        "english_name": "karme qatif",
        "long": 34.91308,
        "latt": 31.53466
    },
    {
        "name": "כרמיאל",
        "english_name": "karmi'el",
        "long": 35.29768,
        "latt": 32.9137
    },
    {
        "name": "כרמיה",
        "english_name": "karmiyya",
        "long": 34.54367,
        "latt": 31.60392
    },
    {
        "name": "כרמייה",
        "english_name": "",
        "long": 34.54217,
        "latt": 31.60418
    },
    {
        "name": "כרמים",
        "english_name": "keramim",
        "long": 34.9177,
        "latt": 31.33307
    },
    {
        "name": "כרמל",
        "english_name": "karmel",
        "long": 35.18529,
        "latt": 31.43235
    },
    {
        "name": "לא רשום",
        "english_name": "",
        "long": 34.59332,
        "latt": 31.42212
    },
    {
        "name": "לבון",
        "english_name": "lavon",
        "long": 35.28692,
        "latt": 32.94237
    },
    {
        "name": "לביא",
        "english_name": "lavi",
        "long": 35.45267,
        "latt": 32.787
    },
    {
        "name": "לבנים",
        "english_name": "livnim",
        "long": 35.49247,
        "latt": 32.86385
    },
    {
        "name": "להב",
        "english_name": "lahav",
        "long": 34.8695,
        "latt": 31.37913
    },
    {
        "name": "להבות הבשן",
        "english_name": "lahavot habashan",
        "long": 35.64591,
        "latt": 33.14139
    },
    {
        "name": "להבות חביבה",
        "english_name": "lahavot haviva",
        "long": 35.0096,
        "latt": 32.39501
    },
    {
        "name": "להבים",
        "english_name": "lehavim",
        "long": 34.81403,
        "latt": 31.37003
    },
    {
        "name": "לוד",
        "english_name": "lod",
        "long": 34.88789,
        "latt": 31.95102
    },
    {
        "name": "לוזית",
        "english_name": "luzit",
        "long": 34.88674,
        "latt": 31.68681
    },
    {
        "name": "לוחמי הגיטאות",
        "english_name": "lohame hageta'ot",
        "long": 35.09798,
        "latt": 32.96222
    },
    {
        "name": "לוטם",
        "english_name": "lotem",
        "long": 35.35741,
        "latt": 32.88163
    },
    {
        "name": "לוטן",
        "english_name": "lotan",
        "long": 35.08793,
        "latt": 29.98668
    },
    {
        "name": "לימן",
        "english_name": "liman",
        "long": 35.11113,
        "latt": 33.06072
    },
    {
        "name": "לכיש",
        "english_name": "lakhish",
        "long": 34.84146,
        "latt": 31.56414
    },
    {
        "name": "לפיד",
        "english_name": "lappid",
        "long": 35.03238,
        "latt": 31.9174
    },
    {
        "name": "לפידות",
        "english_name": "lappidot",
        "long": 35.26566,
        "latt": 32.96096
    },
    {
        "name": "לקיה",
        "english_name": "laqye",
        "long": 34.86477,
        "latt": 31.32385
    },
    {
        "name": "מאור",
        "english_name": "ma'or",
        "long": 35.00465,
        "latt": 32.42142
    },
    {
        "name": "מאיר שפיה",
        "english_name": "me'ir shefeya",
        "long": 34.97009,
        "latt": 32.59117
    },
    {
        "name": "מבוא ביתר",
        "english_name": "mevo betar",
        "long": 35.10348,
        "latt": 31.72287
    },
    {
        "name": "מבוא דותן",
        "english_name": "mevo dotan",
        "long": 35.17548,
        "latt": 32.42019
    },
    {
        "name": "מבוא חורון",
        "english_name": "mevo horon",
        "long": 35.0376,
        "latt": 31.84772
    },
    {
        "name": "מבוא חמה",
        "english_name": "mevo hamma",
        "long": 35.65516,
        "latt": 32.7359
    },
    {
        "name": "מבוא מודיעים",
        "english_name": "mevo modi'im",
        "long": 34.98687,
        "latt": 31.93397
    },
    {
        "name": "מבואות ים",
        "english_name": "mevo'ot yam",
        "long": 34.87006,
        "latt": 32.39982
    },
    {
        "name": "מבועים",
        "english_name": "mabbu'im",
        "long": 34.65406,
        "latt": 31.44921
    },
    {
        "name": "מבטחים",
        "english_name": "mivtahim",
        "long": 34.4085,
        "latt": 31.23998
    },
    {
        "name": "מבקיעים",
        "english_name": "mavqi'im",
        "long": 34.5743,
        "latt": 31.62138
    },
    {
        "name": "מבשרת ציון",
        "english_name": "mevasseret ziyyon",
        "long": 35.15053,
        "latt": 31.80017
    },
    {
        "name": "מג'ד אל-כרום",
        "english_name": "majd al-kurum",
        "long": 35.25426,
        "latt": 32.92088
    },
    {
        "name": "מג'דל שמס",
        "english_name": "majdal shams",
        "long": 35.76875,
        "latt": 33.26639
    },
    {
        "name": "מגאר",
        "english_name": "mughar",
        "long": 35.40429,
        "latt": 32.88797
    },
    {
        "name": "מגדים",
        "english_name": "megadim",
        "long": 34.95889,
        "latt": 32.72897
    },
    {
        "name": "מגדל",
        "english_name": "migdal",
        "long": 35.50765,
        "latt": 32.83642
    },
    {
        "name": "מגדל העמק",
        "english_name": "migdal haemeq",
        "long": 35.2429,
        "latt": 32.67926
    },
    {
        "name": "מגדל עוז",
        "english_name": "migdal oz",
        "long": 35.1435,
        "latt": 31.63927
    },
    {
        "name": "מגדל תפן",
        "english_name": "",
        "long": 35.27567,
        "latt": 32.97738
    },
    {
        "name": "מגדלים",
        "english_name": "migdalim",
        "long": 35.34222,
        "latt": 32.09015
    },
    {
        "name": "מגידו",
        "english_name": "megiddo",
        "long": 35.18182,
        "latt": 32.57954
    },
    {
        "name": "מגל",
        "english_name": "maggal",
        "long": 35.03523,
        "latt": 32.38556
    },
    {
        "name": "מגן",
        "english_name": "magen",
        "long": 34.42908,
        "latt": 31.29828
    },
    {
        "name": "מגן שאול",
        "english_name": "magen sha'ul",
        "long": 35.30752,
        "latt": 32.52121
    },
    {
        "name": "מגשימים",
        "english_name": "magshimim",
        "long": 34.89867,
        "latt": 32.04679
    },
    {
        "name": "מדרך עוז",
        "english_name": "midrakh oz",
        "long": 35.15846,
        "latt": 32.59492
    },
    {
        "name": "מדרשת בן גוריון",
        "english_name": "midreshet ben gurion",
        "long": 34.7787,
        "latt": 30.85052
    },
    {
        "name": "מדרשת רופין",
        "english_name": "midreshet ruppin",
        "long": 34.9122,
        "latt": 32.34175
    },
    {
        "name": "מודיעין עילית",
        "english_name": "modi'in illit",
        "long": 35.04098,
        "latt": 31.93172
    },
    {
        "name": "מודיעין-מכבים-רעות",
        "english_name": "modi'in-makkabbim-re",
        "long": 35.01386,
        "latt": 31.89865
    },
    {
        "name": "מולדה",
        "english_name": "",
        "long": 34.97522,
        "latt": 31.26204
    },
    {
        "name": "מולדת",
        "english_name": "moledet",
        "long": 35.44173,
        "latt": 32.58583
    },
    {
        "name": "מועאוויה",
        "english_name": "",
        "long": 35.10413,
        "latt": 32.53155
    },
    {
        "name": "מוצא עילית",
        "english_name": "moza illit",
        "long": 35.15747,
        "latt": 31.79392
    },
    {
        "name": "מוצמוץ",
        "english_name": "",
        "long": 35.15515,
        "latt": 32.54427
    },
    {
        "name": "מוקייבלה",
        "english_name": "muqeible",
        "long": 35.29645,
        "latt": 32.51416
    },
    {
        "name": "מורן",
        "english_name": "moran",
        "long": 35.39488,
        "latt": 32.91955
    },
    {
        "name": "מורשת",
        "english_name": "moreshet",
        "long": 35.23409,
        "latt": 32.82695
    },
    {
        "name": "מושיירפה",
        "english_name": "",
        "long": 35.15664,
        "latt": 32.55372
    },
    {
        "name": "מזור",
        "english_name": "mazor",
        "long": 34.92526,
        "latt": 32.05218
    },
    {
        "name": "מזכרת בתיה",
        "english_name": "mazkeret batya",
        "long": 34.8426,
        "latt": 31.85129
    },
    {
        "name": "מזרע",
        "english_name": "mizra",
        "long": 35.28726,
        "latt": 32.65095
    },
    {
        "name": "מזרעה",
        "english_name": "mazra'a",
        "long": 35.0986,
        "latt": 32.98438
    },
    {
        "name": "מחולה",
        "english_name": "mehola",
        "long": 35.51659,
        "latt": 32.36871
    },
    {
        "name": "מחנה הילה",
        "english_name": "",
        "long": 34.92611,
        "latt": 32.32483
    },
    {
        "name": "מחנה טלי",
        "english_name": "",
        "long": 35.21079,
        "latt": 31.7858
    },
    {
        "name": "מחנה יהודית",
        "english_name": "",
        "long": 35.21079,
        "latt": 31.7858
    },
    {
        "name": "מחנה יוכבד",
        "english_name": "",
        "long": 35.21079,
        "latt": 31.7858
    },
    {
        "name": "מחנה יפה",
        "english_name": "",
        "long": 34.76593,
        "latt": 32.06366
    },
    {
        "name": "מחנה יתיר",
        "english_name": "mahane yattir",
        "long": 35.21278,
        "latt": 31.78465
    },
    {
        "name": "מחנה מרים",
        "english_name": "",
        "long": 35.21079,
        "latt": 31.7858
    },
    {
        "name": "מחנה עדי",
        "english_name": "",
        "long": 35.21079,
        "latt": 31.7858
    },
    {
        "name": "מחנה תל נוף",
        "english_name": "",
        "long": 34.81885,
        "latt": 31.82206
    },
    {
        "name": "מחניים",
        "english_name": "mahanayim",
        "long": 35.57029,
        "latt": 32.9898
    },
    {
        "name": "מחסיה",
        "english_name": "mahseya",
        "long": 35.00718,
        "latt": 31.74781
    },
    {
        "name": "מטולה",
        "english_name": "metula",
        "long": 35.57502,
        "latt": 33.28063
    },
    {
        "name": "מטע",
        "english_name": "matta",
        "long": 35.06135,
        "latt": 31.71774
    },
    {
        "name": "מי עמי",
        "english_name": "me ammi",
        "long": 35.14535,
        "latt": 32.50311
    },
    {
        "name": "מיטב",
        "english_name": "metav",
        "long": 35.30045,
        "latt": 32.54589
    },
    {
        "name": "מייסר",
        "english_name": "meiser",
        "long": 35.04257,
        "latt": 32.44451
    },
    {
        "name": "מיצר",
        "english_name": "mezar",
        "long": 35.73578,
        "latt": 32.76608
    },
    {
        "name": "מירב",
        "english_name": "merav",
        "long": 35.42182,
        "latt": 32.45283
    },
    {
        "name": "מירון",
        "english_name": "meron",
        "long": 35.44306,
        "latt": 32.99057
    },
    {
        "name": "מישר",
        "english_name": "meshar",
        "long": 34.75402,
        "latt": 31.81847
    },
    {
        "name": "מיתר",
        "english_name": "metar",
        "long": 34.94021,
        "latt": 31.32604
    },
    {
        "name": "מכורה",
        "english_name": "mekhora",
        "long": 35.42354,
        "latt": 32.16171
    },
    {
        "name": "מכחול",
        "english_name": "makchul",
        "long": 35.07313,
        "latt": 31.28722
    },
    {
        "name": "מכמורת",
        "english_name": "mikhmoret",
        "long": 34.87193,
        "latt": 32.40558
    },
    {
        "name": "מכמנים",
        "english_name": "mikhmannim",
        "long": 35.32972,
        "latt": 32.90715
    },
    {
        "name": "מלאה",
        "english_name": "mele'a",
        "long": 35.23675,
        "latt": 32.56378
    },
    {
        "name": "מלילות",
        "english_name": "melilot",
        "long": 34.59586,
        "latt": 31.38903
    },
    {
        "name": "מלכיה",
        "english_name": "malkiyya",
        "long": 35.51128,
        "latt": 33.09827
    },
    {
        "name": "מלכייה",
        "english_name": "",
        "long": 35.51094,
        "latt": 33.09789
    },
    {
        "name": "מלכישוע",
        "english_name": "malkishua",
        "long": 35.41278,
        "latt": 32.43814
    },
    {
        "name": "מנוחה",
        "english_name": "menuha",
        "long": 34.77698,
        "latt": 31.65693
    },
    {
        "name": "מנוף",
        "english_name": "manof",
        "long": 35.2379,
        "latt": 32.85282
    },
    {
        "name": "מנות",
        "english_name": "manot",
        "long": 35.19681,
        "latt": 33.03854
    },
    {
        "name": "מנחמיה",
        "english_name": "menahemya",
        "long": 35.55519,
        "latt": 32.6666
    },
    {
        "name": "מנרה",
        "english_name": "mennara",
        "long": 35.54463,
        "latt": 33.1952
    },
    {
        "name": "מנשית זבדה",
        "english_name": "manshiyyet zabda",
        "long": 35.19277,
        "latt": 32.70551
    },
    {
        "name": "מסד",
        "english_name": "massad",
        "long": 35.42355,
        "latt": 32.8435
    },